지진해일대피소명,지진해일대피소구분,지진해일대피소유형,지진해일대피소유형구분,소재지도로명주소,소재지지번주소,위도,경도,수용가능면적,최대수용인원수,지진해일대피소운영상태,지진해일대피소전화번호,부대편의시설,주민대피지구명,주민대피지구내가구수,주민대피지구내거주인수,주민대피지구내재해약자수,내진적용여부,내진설계등급,해안선이격거리,해발높이,지진대피안내표지판수,긴급대피장소안내표지판수,지진대피로안내표지판수,관리기관명,관리기관전화번호,데이터기준일자
대항주차장,지진해일대피소,지진해일 긴급대피장소,기타,부산광역시 강서구 가덕도동 산 13-29,부산광역시 강서구 가덕도동 산 13-29,35.009890,128.825139,19974.9,6053,Y,051-970-2973,,대항지구,,,,미적용,,200,15,,,,부산 강서구,051-970-2973,2019-06-30
마을진입로,지진해일대피소,지진해일 긴급대피장소,기타,부산광역시 강서구 가덕도동 382-2,부산광역시 강서구 가덕도동 382-2,35.014489,128.827586,1527.9,463,Y,051-970-2973,,대항지구,,,,미적용,,80,35,,,,부산 강서구,051-970-2973,2019-06-30
(구)외항포가는길,지진해일대피소,지진해일 긴급대피장소,기타,부산광역시 강서구 가덕도동 산 3-26,부산광역시 강서구 가덕도동 산 3-26,35.028487,128.817874,1310.1,397,Y,051-970-2973,,대항지구,,,,미적용,,55,25,,,,부산 강서구,051-970-2973,2019-06-30
두송종합사회복지관앞주차장,지진해일대피소,지진해일 긴급대피장소,공터,부산광역시 사하구 다대동 469-2,부산광역시 사하구 다대동 469-2,35.044873,128.969475,990,300,Y,051-220-4625,,다대2지구,,,,미적용,,656,27,,,,부산 사하구,051-220-4625,2019-06-30
중현초등학교,지진해일대피소,지진해일 긴급대피장소,기타,부산광역시 사하구 다대1동 1550-4,부산광역시 사하구 다대1동 1550-4,35.050725,128.966515,4745.4,1438,Y,051-220-4625,,다대1지구,,,,미적용,,755,35,,,,부산 사하구,051-220-4625,2019-06-30
몰운대공터,지진해일대피소,지진해일 긴급대피장소,공터,부산광역시 사하구 다대2동 96-1,부산광역시 사하구 다대2동 96-1,35.061950,128.984229,3300,1000,Y,051-220-4624,,다대1지구,,,,미적용,,600,10,,,,부산 사하구,051-220-4624,2019-06-30
송도초등학교,지진해일대피소,지진해일 긴급대피장소,운동장,부산광역시 서구 암남동 620-2,부산광역시 서구 암남동 620-2,35.0616573970,129.0149367910,3960,1200,Y,051-240-4654,,송도해수욕장 지구,,,,미적용,,210,20,,,,부산 서구,051-240-4654,2019-06-30
BMC아파트 테니스장,지진해일대피소,지진해일 긴급대피장소,공터,부산광역시 사하구 다대2동 113-9,부산광역시 사하구 다대2동 113-9,35.064557,128.978905,330,100,Y,051-220-4625,,다대2지구,,,,미적용,,818,40,,,,부산 사하구,051-220-4625,2019-06-30
송도공원(식당) 주차장 앞 공터,지진해일대피소,지진해일 긴급대피장소,공터,부산광역시 서구 암남동 618-8,부산광역시 서구 암남동 618-8,35.0704943627,129.018225,825,250,Y,051-240-4654,,송도해수욕장 지구,,,,미적용,,100,35,,,,부산 서구,051-240-4654,2019-06-30
송도해수욕장 공영주차장,지진해일대피소,지진해일 긴급대피장소,기타,부산광역시 서구 암남동 579,부산광역시 서구 암남동 579,35.073762,129.015711857,3300,1000,Y,051-240-4654,,송도해수욕장 지구,,,,미적용,,360,23,,,,부산 서구,051-240-4654,2019-06-30
송림공원,지진해일대피소,지진해일 긴급대피장소,공터,부산광역시 서구 암남동 124-1,부산광역시 서구 암남동 124-1,35.0767930535,129.023197398,4950,1500,Y,051-240-4654,,한진매립지 지구,,,,미적용,,250,11,,,,부산 서구,051-240-4654,2019-06-30
암남동주민센터 주차장,지진해일대피소,지진해일 긴급대피장소,공터,부산광역시 서구 암남동 암남동 257-1,부산광역시 서구 암남동 암남동 257-1,35.078376,129.018496,660,200,Y,051-240-4654,,한진매립지 지구,,,,미적용,,370,22,,,,부산 서구,051-240-4654,2019-06-30
암남공원,지진해일대피소,지진해일 긴급대피장소,공터,부산광역시 서구 암남동 313,부산광역시 서구 암남동 313,35.0782143,129.0155937,16500,5000,Y,051-240-4654,,암남공원 지구,,,,미적용,,210,16,,,,부산 서구,051-240-4654,2019-06-30
송도 탑스빌 광장,지진해일대피소,지진해일 긴급대피장소,기타,부산광역시 서구 암남동 88-5,부산광역시 서구 암남동 88-5,35.079898156,129.020950001,660,200,Y,051-240-4654,,송도해수욕장 지구,,,,미적용,,160,30,,,,부산 서구,051-240-4654,2019-06-30
공수마을뒷산(멍두산),지진해일대피소,지진해일 긴급대피장소,공터,부산광역시 기장군 기장읍 시랑리 690-3,부산광역시 기장군 기장읍 시랑리 690-3,35.1840025169,129.208872692,1320,400,Y,033-123-4567,,공수지구,,,,미적용,,550,30,,,,부산 기장군,033-123-4567,2019-06-30
힐튼호텔 앞 도로,지진해일대피소,지진해일 긴급대피장소,기타,부산광역시 기장군 기장읍 시랑리 704,부산광역시 기장군 기장읍 시랑리 704,35.2000504104,129.229090248,1650,500,Y,051-709-5427,,동암지구,,,,미적용,,300,21,,,,부산 기장군,051-709-5427,2019-06-30
서암마을 뒤 신도로,지진해일대피소,지진해일 긴급대피장소,기타,부산광역시 기장군 기장읍 연화리 392,부산광역시 기장군 기장읍 연화리 392,35.124668,129.131800,1650,500,Y,051-709-5427,,서암-신암지구,,,,미적용,,200,28,,,,부산 기장군,051-709-5427,2019-06-30
동생말 언덕,지진해일대피소,지진해일 긴급대피장소,기타,부산광역시 남구 용호동 산5-4,부산광역시 남구 용호동 산5-4,35.127632,129.118299,990,300,Y,051-607-4644,,용호섶자리지구,,,,미적용,,600,25,,,,부산 남구,051-607-4644,2019-06-30
신암마을 뒤 신도로,지진해일대피소,지진해일 긴급대피장소,기타,부산광역시 기장군 기장읍 연화리 208-3,부산광역시 기장군 기장읍 연화리 208-3,35.130832,129.132914,990,300,Y,051-709-5427,,서암-신암지구,,,,미적용,,500,17,,,,부산 기장군,051-709-5427,2019-06-30
한바다중학교,지진해일대피소,지진해일 긴급대피장소,운동장,부산광역시 수영구 남천2동 남천동 151,부산광역시 수영구 남천2동 남천동 151,35.142663,129.112313,4950,1500,Y,051-610-4646,,광안지구,,,,미적용,,445,11,,,,부산 수영구,051-610-4646,2019-06-30
월전마을 야산 사거리,지진해일대피소,지진해일 긴급대피장소,공터,부산광역시 기장군 기장읍 죽성리 296-1,부산광역시 기장군 기장읍 죽성리 296-1,35.142800,129.142800,1650,500,Y,051-709-5427,,월전-죽성지구,,,,미적용,,520,16,,,,부산 기장군,051-709-5427,2019-06-30
민락동 행정복지센터,지진해일대피소,지진해일 긴급대피장소,공터,부산광역시 수영구 남천동 148-15,부산광역시 수영구 남천동 148-15,35.1453713129,129.112370437,669.9,203,Y,051-610-4644,,민락지구,,,,미적용,,410,12,,,,부산 수영구,051-610-4644,2019-06-30
동백공원,지진해일대피소,지진해일 긴급대피장소,공터,부산광역시 해운대구 우동 710-1,부산광역시 해운대구 우동 710-1,35.153587,129.151932,16500,5000,Y,051-749-6165,,해운대지구,,,,미적용,,460,40,,,,부산 해운대구,051-749-6165,2019-06-30
한국유리 본관 앞 주차장,지진해일대피소,지진해일 긴급대피장소,공터,부산광역시 기장군 일광면 일광로 188,부산광역시 기장군 일광면 일광로 188,35.2685442775,129.243425598,264,80,Y,051-709-5427,,학리-이동지구,,,,미적용,,200,14,,,,부산 기장군,051-709-5427,2019-06-30
달맞이고개,지진해일대피소,지진해일 긴급대피장소,공터,부산광역시 해운대구 중2동 974-1,부산광역시 해운대구 중2동 974-1,35.156866,129.182299,3300,1000,Y,051-749-6165,,해운대지구,,,,미적용,,590,26,,,,부산 해운대구,051-749-6165,2019-06-30
백산,지진해일대피소,지진해일 긴급대피장소,공터,부산광역시 수영구 민락동 34-10,부산광역시 수영구 민락동 34-10,35.1572614688,129.125408,4950,1500,Y,051-610-4644,,민락지구,,,,미적용,,650,40,,,,부산 수영구,051-610-4644,2019-06-30
민락초등학교,지진해일대피소,지진해일 긴급대피장소,공터,부산광역시 수영구 광안2동 154-1,부산광역시 수영구 광안2동 154-1,35.157414,129.118085,7256.7,2199,Y,051-610-4644,,민락지구,,,,미적용,,600,29,,,,부산 수영구,051-610-4644,2019-06-30
광안초등학교,지진해일대피소,지진해일 긴급대피장소,운동장,부산광역시 수영구 광안동 154,부산광역시 수영구 광안동 154,35.1572011894,129.116731883,4950,1500,Y,051-610-4646,,광안지구,,,,미적용,,450,11,,,,부산 수영구,051-610-4646,2019-06-30
코오롱하늘채아파트,지진해일대피소,지진해일 긴급대피장소,기타,부산광역시 수영구 민락동 12-1,부산광역시 수영구 민락동 12-1,35.160947,129.127105,3300,1000,Y,051-610-4644,,남천지구,,,,미적용,,370,28,,,,부산 수영구,051-610-4644,2019-06-30
이동마을 뒷산,지진해일대피소,지진해일 긴급대피장소,공터,부산광역시 기장군 일광면 이천리 221-4,부산광역시 기장군 일광면 이천리 221-4,35.162448,129.143692,1320,400,Y,051-709-5427,,학리-이동지구,,,,미적용,,500,14,,,,부산 기장군,051-709-5427,2019-06-30
수영구청,지진해일대피소,지진해일 긴급대피장소,기타,부산광역시 수영구 민락동 327-2,부산광역시 수영구 민락동 327-2,35.1613685151,129.126584233,3300,1000,Y,051-610-4644,,남천지구,,,,미적용,,410,21,,,,부산 수영구,051-610-4644,2019-06-30
부경대수산과학연구소 앞 야산,지진해일대피소,지진해일 긴급대피장소,공터,부산광역시 기장군 일광면 동백리 241-3,부산광역시 기장군 일광면 동백리 241-3,35.170725,129.152434,2145,650,Y,051-709-5427,,동백지구,,,,미적용,,320,17,,,,부산 기장군,051-709-5427,2019-06-30
해운대청소년수련원일대,지진해일대피소,지진해일 긴급대피장소,공터,부산광역시 해운대구 송정동 산86-25,부산광역시 해운대구 송정동 산86-25,35.173852,129.195498,16500,5000,Y,051-749-6165,,송정지구,,,,미적용,,460,35,,,,부산 해운대구,051-749-6165,2019-06-30
죽도공원,지진해일대피소,지진해일 긴급대피장소,공터,부산광역시 해운대구 송정동 산52-1,부산광역시 해운대구 송정동 산52-1,35.1799190619,129.206079712,3300,1000,Y,051-749-6165,,송정지구,,,,미적용,,100,12,,,,부산 해운대구,051-749-6165,2019-06-30
죽성국수당,지진해일대피소,지진해일 긴급대피장소,공터,부산광역시 기장군 기장읍 죽성리 257,부산광역시 기장군 기장읍 죽성리 257,35.194500,129.163600,1650,500,Y,051-709-5427,,월전-죽성지구,,,,미적용,,400,16,,,,부산 기장군,051-709-5427,2019-06-30
월내야산(삼막골),지진해일대피소,지진해일 긴급대피장소,공터,부산광역시 기장군 장안읍 월내리 286-2,부산광역시 기장군 장안읍 월내리 286-2,35.194500,129.163600,2310,700,Y,051-709-5427,,월내-길천지구,,,,미적용,,400,26,,,,부산 기장군,051-709-5427,2019-06-30
국립수산과학원 정문 앞 도로,지진해일대피소,지진해일 긴급대피장소,기타,부산광역시 기장군 기장읍 시랑리 408-1,부산광역시 기장군 기장읍 시랑리 408-1,35.1910958064,129.222285606,660,200,Y,033-123-4567,,동암지구,,,,미적용,,500,14,,,,부산 기장군,033-123-4567,2019-06-30
속초감리교회,지진해일대피소,지진해일 긴급대피장소,공터,강원도 속초시 동명동 338,강원도 속초시 동명동 338,35.212530,129.221761,4950,1500,Y,033-639-2685,,동명지구,,,,미적용,,450,39,,,,속초시,033-639-2685,2019-06-30
대항교회,지진해일대피소,지진해일 긴급대피장소,기타,부산광역시 기장군 기장읍 대변리 149,부산광역시 기장군 기장읍 대변리 149,35.226170,129.228534,990,300,Y,051-721-2269,,대변지구,,,,미적용,,350,11,,,,부산 기장군,051-721-2269,2019-06-30
학리마을 뒷산,지진해일대피소,지진해일 긴급대피장소,공터,부산광역시 기장군 일광면 학리 176,부산광역시 기장군 일광면 학리 176,35.256975,129.243405,990,300,Y,051-709-5427,,학리-이동지구,,,,미적용,,300,23,,,,부산 기장군,051-709-5427,2019-06-30
문동마을 뒷산,지진해일대피소,지진해일 긴급대피장소,공터,부산광역시 기장군 일광면 문동리 산25-3,부산광역시 기장군 일광면 문동리 산25-3,35.287398,129.254033,1650,500,Y,051-709-5427,,칠암-문동지구,,,,미적용,,600,42,,,,부산 기장군,051-709-5427,2019-06-30
칠암초등학교,지진해일대피소,지진해일 긴급대피장소,기타,부산광역시 기장군 일광면 칠암리 134,부산광역시 기장군 일광면 칠암리 134,35.2987514122,129.255910467,990,300,Y,051-727-0760,,칠암-문동지구,,,,적용,1등급,200,11,,,,부산 기장군,051-727-0760,2019-06-30
기장문화예절학교,지진해일대피소,지진해일 긴급대피장소,기타,부산광역시 기장군 장안읍 월내리 579,부산광역시 기장군 장안읍 월내리 579,35.3254953396,129.26827765,2970,900,Y,051-728-8022,,월내-길천지구,,,,적용,2등급,550,34,,,,부산 기장군,051-728-8022,2019-06-30
임랑야산(대덕사),지진해일대피소,지진해일 긴급대피장소,공터,부산광역시 기장군 장안읍 임랑리 97-10,부산광역시 기장군 장안읍 임랑리 97-10,35.327456,129.277202,1155,350,Y,051-709-5427,,임랑지구,,,,미적용,,400,11,,,,부산 기장군,051-709-5427,2019-06-30
고리스포츠문화센터,지진해일대피소,지진해일 긴급대피장소,기타,부산광역시 기장군 장안읍 길천리 85,부산광역시 기장군 장안읍 길천리 85,35.329468,129.287951,4950,1500,Y,051-726-5195,,월내-길천지구,,,,적용,1등급,500,14,,,,부산 기장군,051-726-5195,2019-06-30
소망교회주차장,지진해일대피소,지진해일 긴급대피장소,공터,울산광역시 울주군 서생면 신암리 324,울산광역시 울주군 서생면 신암리 324,35.3450975,129.3199328,330,100,Y,052-204-2318,,신암지구,,,,미적용,,300,17,,,,울산 울주군,052-204-2318,2019-06-30
신암회관마당,지진해일대피소,지진해일 긴급대피장소,공터,울산광역시 울주군 서생면 신암리 454,울산광역시 울주군 서생면 신암리 454,35.3490640,129.3234210,330,100,Y,052-204-2318,,신암지구,,,,미적용,,300,12,,,,울산 울주군,052-204-2318,2019-06-30
서생면사무소주차장,지진해일대피소,지진해일 긴급대피장소,공터,울산광역시 울주군 서생면 신암리 245-2,울산광역시 울주군 서생면 신암리 245-2,35.3500744,129.3263825,1320,400,Y,052-204-2318,,신암지구,,,,미적용,,250,17,,,,울산 울주군,052-204-2318,2019-06-30
서생중학교운동장,지진해일대피소,지진해일 긴급대피장소,운동장,울산광역시 울주군 서생면 신암리 8-1,울산광역시 울주군 서생면 신암리 8-1,35.3505775,129.3312039,990,300,Y,052-204-2318,,나사지구,,,,미적용,,350,15,,,,울산 울주군,052-204-2318,2019-06-30
서생중학교운동장,지진해일대피소,지진해일 긴급대피장소,운동장,울산광역시 울주군 서생면 신암리 8-1,울산광역시 울주군 서생면 신암리 8-1,35.3505775,129.331214,990,300,Y,052-204-2318,,신암지구,,,,미적용,,350,15,,,,울산 울주군,052-204-2318,2019-06-30
평동어촌계회관마당,지진해일대피소,지진해일 긴급대피장소,공터,울산광역시 울주군 서생면 대송리 67-2,울산광역시 울주군 서생면 대송리 67-2,35.3562241,129.353246,396,120,Y,052-204-2318,,평동지구,,,,미적용,,120,10,,,,울산 울주군,052-204-2318,2019-06-30
평동회관마당,지진해일대피소,지진해일 긴급대피장소,공터,울산광역시 울주군 서생면 대송리 77-2,울산광역시 울주군 서생면 대송리 77-2,35.3566822,129.353348,165,50,Y,052-204-2318,,평동지구,,,,미적용,,210,12,,,,울산 울주군,052-204-2318,2019-06-30
호소공원버스정류장,지진해일대피소,지진해일 긴급대피장소,기타,울산광역시 울주군 서생면 나사리 산15-6,울산광역시 울주군 서생면 나사리 산15-6,35.356941,129.343412,660,200,Y,052-204-2318,,나사지구,,,,미적용,,200,13,,,,울산 울주군,052-204-2318,2019-06-30
대송학생야영장운동장,지진해일대피소,지진해일 긴급대피장소,운동장,울산광역시 울주군 서생면 대송리 195,울산광역시 울주군 서생면 대송리 195,35.3593669,129.3574826,330,100,Y,052-204-2318,,대송송정지구,,,,미적용,,350,23,,,,울산 울주군,052-204-2318,2019-06-30
송정회관마당,지진해일대피소,지진해일 긴급대피장소,공터,울산광역시 울주군 서생면 대송리 335-6,울산광역시 울주군 서생면 대송리 335-6,35.3662329,129.353423,165,50,Y,052-204-2318,,대송송정지구,,,,미적용,,300,23,,,,울산 울주군,052-204-2318,2019-06-30
성동초등학교,지진해일대피소,지진해일 긴급대피장소,기타,울산광역시 울주군 서생면 서생리 387,울산광역시 울주군 서생면 서생리 387,35.3855388,129.341763,1650,500,Y,052-204-2318,,진하지구,,,,적용,1등급,520,9,,,,울산 울주군,052-204-2318,2019-06-30
진하회관,지진해일대피소,지진해일 긴급대피장소,공터,울산광역시 울주군 서생면 진하리 255,울산광역시 울주군 서생면 진하리 255,35.3865930,129.342526,330,100,Y,052-204-2318,,진하지구,,,,미적용,,580,6,,,,울산 울주군,052-204-2318,2019-06-30
만포횟집마당,지진해일대피소,지진해일 긴급대피장소,공터,울산광역시 울주군 온산읍 강양리 91-1,울산광역시 울주군 온산읍 강양리 91-1,35.3911672,129.3471966,165,50,Y,052-204-2318,,강양지구,,,,미적용,,200,16,,,,울산 울주군,052-204-2318,2019-06-30
야산(공터),지진해일대피소,지진해일 긴급대피장소,공터,울산광역시 울주군 온산읍 강양리 161,울산광역시 울주군 온산읍 강양리 161,35.3936726,129.3452768,495,150,Y,052-204-2318,,강양지구,,,,미적용,,210,9,,,,울산 울주군,052-204-2318,2019-06-30
화암초등학교(운동장),지진해일대피소,지진해일 긴급대피장소,운동장,울산광역시 동구 방어동 1150,울산광역시 동구 방어동 1150,35.4842146,129.415682,2640,800,Y,052-209-3688,,방어지구,,,,미적용,,300,21,,,,울산 동구,052-209-3688,2019-06-30
성끝마을 수협위판장 뒤 야산,지진해일대피소,지진해일 긴급대피장소,공터,울산광역시 동구 방어동 18-32,울산광역시 동구 방어동 18-32,35.484407,129.432083,990,300,Y,052-209-3688,,방어지구,,,,미적용,,150,18,,,,울산 동구,052-209-3688,2019-06-30
방어진초등학교(운동장),지진해일대피소,지진해일 긴급대피장소,운동장,울산광역시 동구 방어동 146,울산광역시 동구 방어동 146,35.4873269,129.424769,2640,800,Y,052-209-3688,,방어지구,,,,미적용,,500,17,,,,울산 동구,052-209-3688,2019-06-30
대왕암 앞 공영주차장,지진해일대피소,지진해일 긴급대피장소,공터,울산광역시 동구 일산동 901-8,울산광역시 동구 일산동 901-8,35.4904184946,129.435244997,990,300,Y,052-209-3688,,일산지구,,,,미적용,,170,18,,,,울산 동구,052-209-3688,2019-06-30
일산지 공영주차장,지진해일대피소,지진해일 긴급대피장소,공터,울산광역시 동구 일산동 963,울산광역시 동구 일산동 963,35.494610,129.428744,990,300,Y,052-209-3688,,일산지구,,,,미적용,,230,17,,,,울산 동구,052-209-3688,2019-06-30
고늘마을 현대주차장 옆 공터,지진해일대피소,지진해일 긴급대피장소,공터,울산광역시 동구 일산동 305-4,울산광역시 동구 일산동 305-4,35.501862,129.434494,990,300,Y,052-209-3688,,일산지구,,,,미적용,,160,28,,,,울산 동구,052-209-3688,2019-06-30
장생포항 야산,지진해일대피소,지진해일 긴급대피장소,공터,울산광역시 남구 야음장생포동 산102-1,울산광역시 남구 야음장생포동 산102-1,35.502707,129.371267,660,200,Y,052-266-3501,,장생포해안지구,,,,미적용,,250,12,,,,남구,052-266-3501,2019-06-30
장생포복지문화센터,지진해일대피소,지진해일 긴급대피장소,기타,울산광역시 남구 야음장생포동 41-4,울산광역시 남구 야음장생포동 41-4,35.502885,129.377578,330,100,Y,052-226-2651,,장생포해안지구,,,,적용,2등급,60,17,,,,울산 남구,052-226-2651,2019-06-30
장생포초등학교,지진해일대피소,지진해일 긴급대피장소,운동장,울산광역시 남구 야음장생포동 329-1,울산광역시 남구 야음장생포동 329-1,35.503481,129.368254,1650,500,Y,052-268-8882,,장생포해안지구,,,,미적용,,140,11,,,,울산 남구,052-268-8882,2019-06-30
울산항만공사,지진해일대피소,지진해일 긴급대피장소,기타,울산광역시 남구 매암동 180,울산광역시 남구 매암동 180,35.504897,129.382843,330,100,Y,052-225-5325,,장생포해안지구,,,,적용,특등급,100,14,,,,울산 남구,052-225-5325,2019-06-30
고래문화마을,지진해일대피소,지진해일 긴급대피장소,공터,울산광역시 남구 장생포동 232,울산광역시 남구 장생포동 232,35.505382,129.379526,99000,30000,Y,052-226-0304,,장생포해안지구,,,,미적용,,280,21,,,,울산 남구,052-226-0304,2019-06-30
태영인더스트리사택 앞 주차장,지진해일대피소,지진해일 긴급대피장소,공터,울산광역시 남구 야음장생포동 267-7,울산광역시 남구 야음장생포동 267-7,35.505649,129.374527,660,200,Y,052-266-3501,,장생포해안지구,,,,미적용,,360,18,,,,남구,052-266-3501,2019-06-30
주전초등학교(운동장),지진해일대피소,지진해일 긴급대피장소,운동장,울산광역시 동구 주전동 277,울산광역시 동구 주전동 277,35.5579707,129.456926,1650,500,Y,052-209-3688,,주전지구,,,,미적용,,90,18,,,,울산 동구,052-209-3688,2019-06-30
주전 커피나뜨래 뒤 야산,지진해일대피소,지진해일 긴급대피장소,공터,울산광역시 동구 주전동 14,울산광역시 동구 주전동 14,35.566976,129.452916,990,300,Y,052-209-3688,,주전지구,,,,미적용,,200,18,,,,울산 동구,052-209-3688,2019-06-30
어물동 야산,지진해일대피소,지진해일 긴급대피장소,공터,울산광역시 북구 어물동 산372,울산광역시 북구 어물동 산372,35.575367,129.449477,990,300,Y,052-241-7833,,당사지구,,,,미적용,,200,15,,,,울산 북구,052-241-7833,2019-06-30
(구)동해초등학교 운동장,지진해일대피소,지진해일 긴급대피장소,공터,울산광역시 북구 당사동 465-2,울산광역시 북구 당사동 465-2,35.5817995,129.4547134,660,200,Y,052-241-7833,,당사지구,,,,미적용,,150,14,,,,울산 북구,052-241-7833,2019-06-30
강동축구장 주차장,지진해일대피소,지진해일 긴급대피장소,공터,울산광역시 북구 당사동 214,울산광역시 북구 당사동 214,35.587707,129.456464,990,300,Y,052-241-7833,,당사지구,,,,미적용,,300,18,,,,울산 북구,052-241-7833,2019-06-30
우가경로당 주차장,지진해일대피소,지진해일 긴급대피장소,공터,울산광역시 북구 당사동 116-5,울산광역시 북구 당사동 116-5,35.5956645,129.462936,99,30,Y,052-241-7833,,당사지구,,,,미적용,,70,12,,,,울산 북구,052-241-7833,2019-06-30
제전마을 야산,지진해일대피소,지진해일 긴급대피장소,공터,울산광역시 북구 구유동 82-3,울산광역시 북구 구유동 82-3,35.605254,129.457451,660,200,Y,052-241-7833,,구유지구,,,,미적용,,200,20,,,,울산 북구,052-241-7833,2019-06-30
복성마을 야산,지진해일대피소,지진해일 긴급대피장소,공터,울산광역시 북구 구유동 산64,울산광역시 북구 구유동 산64,35.607875,129.455147,330,100,Y,052-241-7833,,구유지구,,,,미적용,,150,22,,,,울산 북구,052-241-7833,2019-06-30
정자오피스텔 주차장,지진해일대피소,지진해일 긴급대피장소,공터,울산광역시 북구 구유동 232,울산광역시 북구 구유동 232,35.611467,129.4570829,990,300,Y,052-241-7833,,구유지구,,,,미적용,,100,12,,,,울산 북구,052-241-7833,2019-06-30
(구)강동중학교 운동장,지진해일대피소,지진해일 긴급대피장소,공터,울산광역시 북구 정자동 272,울산광역시 북구 정자동 272,35.6138669,129.444137,1320,400,Y,052-241-7833,,정자지구,,,,미적용,,500,16,,,,울산 북구,052-241-7833,2019-06-30
(구)강동초등학교 운동장,지진해일대피소,지진해일 긴급대피장소,공터,울산광역시 북구 정자동 321,울산광역시 북구 정자동 321,35.615877,129.446843,1320,400,Y,052-241-7833,,정자지구,,,,미적용,,250,11,,,,울산 북구,052-241-7833,2019-06-30
벽산 아진아파트 주차장,지진해일대피소,지진해일 긴급대피장소,공터,울산광역시 북구 정자동 3,울산광역시 북구 정자동 3,35.619948,129.4474082325,1650,500,Y,052-241-7833,,정자지구,,,,미적용,,100,21,,,,울산 북구,052-241-7833,2019-06-30
알로하모텔 주차장,지진해일대피소,지진해일 긴급대피장소,공터,울산광역시 북구 정자동 435,울산광역시 북구 정자동 435,35.6213170,129.4457240,990,300,Y,052-241-7833,,정자지구,,,,미적용,,100,13,,,,울산 북구,052-241-7833,2019-06-30
시코어 호텔 주차장,지진해일대피소,지진해일 긴급대피장소,공터,울산광역시 북구 산하동 55-1,울산광역시 북구 산하동 55-1,35.6341717,129.441828,660,200,Y,052-241-7833,,산하지구,,,,미적용,,80,11,,,,울산 북구,052-241-7833,2019-06-30
교육수련원 운동장,지진해일대피소,지진해일 긴급대피장소,공터,울산광역시 북구 신명동 153-5,울산광역시 북구 신명동 153-5,35.6411962,129.439443,660,200,Y,052-241-7833,,신명지구,,,,미적용,,150,11,,,,울산 북구,052-241-7833,2019-06-30
신명동 야산,지진해일대피소,지진해일 긴급대피장소,공터,울산광역시 북구 신명동 134-2,울산광역시 북구 신명동 134-2,35.644428,129.439227,330,100,Y,052-241-7833,,신명지구,,,,미적용,,230,24,,,,울산 북구,052-241-7833,2019-06-30
지경IC,지진해일대피소,지진해일 긴급대피장소,공터,울산광역시 북구 신명동 산1-2,울산광역시 북구 신명동 산1-2,35.651001,129.447860,330,100,Y,052-241-7833,,신명지구,,,,미적용,,150,20,,,,울산 북구,052-241-7833,2019-06-30
바다모텔 옆 야산,지진해일대피소,지진해일 긴급대피장소,공터,경상북도 경주시 양남면 수렴리 산120,경상북도 경주시 양남면 수렴리 산120,35.659060,129.450900,660,200,Y,054-779-6508,,관성지구,,,,미적용,,120,15,,,,경주시,054-779-6508,2019-06-30
통일로 토종순대국,지진해일대피소,지진해일 긴급대피장소,공터,경상북도 경주시 양남면 수렴리 94-1,경상북도 경주시 양남면 수렴리 94-1,35.6673454834,129.462679555,1650,500,Y,054-779-6508,,관성지구,,,,미적용,,150,15,,,,경주시,054-779-6508,2019-06-30
현대자동차 수련원,지진해일대피소,지진해일 긴급대피장소,공터,경상북도 경주시 양남면 수렴리 240-6,경상북도 경주시 양남면 수렴리 240-6,35.668640,129.458600,3300,1000,Y,054-779-6508,,관성지구,,,,미적용,,300,20,,,,경주시,054-779-6508,2019-06-30
양남중학교 운동장,지진해일대피소,지진해일 긴급대피장소,운동장,경상북도 경주시 양남면 하서리 651,경상북도 경주시 양남면 하서리 651,35.6740340309,129.461122771,3300,1000,Y,054-779-6508,,하서지구,,,,미적용,,400,15,,,,경주시,054-779-6508,2019-06-30
카리브모텔 뒤 야산,지진해일대피소,지진해일 긴급대피장소,공터,경상북도 경주시 양남면 하서리 25-3,경상북도 경주시 양남면 하서리 25-3,35.682260,129.470100,3300,1000,Y,054-779-6508,,하서지구,,,,미적용,,150,20,,,,경주시,054-779-6508,2019-06-30
읍천1리 마을회관 뒤 솔밭,지진해일대피소,지진해일 긴급대피장소,공터,경상북도 경주시 양남면 읍천리 363,경상북도 경주시 양남면 읍천리 363,35.690550,129.472300,9900,3000,Y,054-779-6508,,읍천지구,,,,미적용,,140,20,,,,경주시,054-779-6508,2019-06-30
나산초등학교,지진해일대피소,지진해일 긴급대피장소,운동장,경상북도 경주시 양남면 읍천리 17,경상북도 경주시 양남면 읍천리 17,35.6977005246,129.469979797,3300,1000,Y,054-779-6508,,나아지구,,,,미적용,,400,15,,,,경주시,054-779-6508,2019-06-30
수재마을소공원,지진해일대피소,지진해일 긴급대피장소,공터,경상북도 경주시 양북면 봉길리 58-6,경상북도 경주시 양북면 봉길리 58-6,35.736380,129.481800,330,100,Y,054-779-6508,,봉길지구,,,,미적용,,300,10,,,,경주시,054-779-6508,2019-06-30
대본초등학교,지진해일대피소,지진해일 긴급대피장소,운동장,경상북도 경주시 감포읍 대본리 669-2,경상북도 경주시 감포읍 대본리 669-2,35.745290,129.483700,660,200,Y,054-779-6508,,대본지구,,,,미적용,,100,15,,,,경주시,054-779-6508,2019-06-30
대본3리 마을회관,지진해일대피소,지진해일 긴급대피장소,기타,경상북도 경주시 감포읍 대본리 606-6,경상북도 경주시 감포읍 대본리 606-6,35.7466534259,129.485922137,165,50,Y,054-779-6508,,대본지구,,,,미적용,,100,15,,,,경주시,054-779-6508,2019-06-30
전망대횟집 앞 야산,지진해일대피소,지진해일 긴급대피장소,공터,경상북도 경주시 감포읍 대본리 산172-2,경상북도 경주시 감포읍 대본리 산172-2,35.752770,129.491500,3300,1000,Y,054-779-6508,,대본지구,,,,미적용,,100,15,,,,경주시,054-779-6508,2019-06-30
감포관광단지 주차장,지진해일대피소,지진해일 긴급대피장소,공터,경상북도 경주시 감포읍 대본리 42-1,경상북도 경주시 감포읍 대본리 42-1,35.765540,129.493300,9900,3000,Y,054-779-6508,,대본지구,,,,미적용,,100,15,,,,경주시,054-779-6508,2019-06-30
나정2리 마을회관 뒤 솔밭,지진해일대피소,지진해일 긴급대피장소,공터,경상북도 경주시 감포읍 나정리 223-2,경상북도 경주시 감포읍 나정리 223-2,35.777644,129.492946,3300,1000,Y,054-779-6508,,나정지구,,,,미적용,,150,20,,,,경주시,054-779-6508,2019-06-30
나정1리 마을회관 앞 야산,지진해일대피소,지진해일 긴급대피장소,공터,경상북도 경주시 감포읍 나정리 203,경상북도 경주시 감포읍 나정리 203,35.778900,129.491100,1650,500,Y,054-779-6508,,나정지구,,,,미적용,,180,15,,,,경주시,054-779-6508,2019-06-30
시드니 낚시마트 뒤 야산,지진해일대피소,지진해일 긴급대피장소,공터,경상북도 경주시 감포읍 천촌리 105-2,경상북도 경주시 감포읍 천촌리 105-2,35.792703,129.494894,3300,1000,Y,054-779-6508,,나정지구,,,,미적용,,100,40,,,,경주시,054-779-6508,2019-06-30
전촌1리 마을회관,지진해일대피소,지진해일 긴급대피장소,기타,경상북도 경주시 감포읍 천촌리 532-1,경상북도 경주시 감포읍 천촌리 532-1,35.792853,129.488369,165,50,Y,054-779-6508,,나정지구,,,,미적용,,550,15,,,,경주시,054-779-6508,2019-06-30
감포읍 주민복지회관,지진해일대피소,지진해일 긴급대피장소,기타,경상북도 경주시 감포읍 천촌리 224,경상북도 경주시 감포읍 천촌리 224,35.798548,129.493692,1650,500,Y,054-779-6508,,감포지구,,,,적용,2등급,500,20,,,,경주시,054-779-6508,2019-06-30
감포읍 버스공용주차장,지진해일대피소,지진해일 긴급대피장소,공터,경상북도 경주시 감포읍 전동리 115,경상북도 경주시 감포읍 전동리 115,35.803422,129.496596,1650,500,Y,054-779-6508,,감포지구,,,,미적용,,600,30,,,,경주시,054-779-6508,2019-06-30
감포읍사무소,지진해일대피소,지진해일 긴급대피장소,기타,경상북도 경주시 감포읍 감포리 56-2,경상북도 경주시 감포읍 감포리 56-2,35.807396,129.501676,330,100,Y,054-779-6508,,감포지구,,,,미적용,,170,15,,,,경주시,054-779-6508,2019-06-30
감포초등학교,지진해일대피소,지진해일 긴급대피장소,운동장,경상북도 경주시 감포읍 감포리 17,경상북도 경주시 감포읍 감포리 17,35.809598,129.502019,4290,1300,Y,054-779-6508,,감포지구,,,,미적용,,300,15,,,,경주시,054-779-6508,2019-06-30
감포중·고등학교,지진해일대피소,지진해일 긴급대피장소,운동장,경상북도 경주시 감포읍 오류리 478-2,경상북도 경주시 감포읍 오류리 478-2,35.8101780313,129.507563933,4290,1300,Y,054-779-6508,,오류지구,,,,미적용,,350,20,,,,경주시,054-779-6508,2019-06-30
일출빌라 뒤 야산,지진해일대피소,지진해일 긴급대피장소,공터,경상북도 경주시 감포읍 오류리 326-2,경상북도 경주시 감포읍 오류리 326-2,35.816212,129.511244857,3300,1000,Y,054-779-6508,,오류지구,,,,미적용,,200,20,,,,경주시,054-779-6508,2019-06-30
감포댐 입구,지진해일대피소,지진해일 긴급대피장소,공터,경상북도 경주시 감포읍 오류리 산14-81,경상북도 경주시 감포읍 오류리 산14-81,35.836855,129.511997,3300,1000,Y,054-779-6508,,오류지구,,,,미적용,,150,12,,,,경주시,054-779-6508,2019-06-30
감포리조트펜션 주차장,지진해일대피소,지진해일 긴급대피장소,공터,경상북도 경주시 감포읍 오류리 137,경상북도 경주시 감포읍 오류리 137,35.838173,129.518482638,1650,500,Y,054-779-6508,,오류지구,,,,미적용,,130,12,,,,경주시,054-779-6508,2019-06-30
두원리 버스승강장 앞,지진해일대피소,지진해일 긴급대피장소,공터,경상북도 포항시 남구 장기면 두원리 523-15,경상북도 포항시 남구 장기면 두원리 523-15,35.843586,129.515796,181.5,55,Y,054-270-8282,,두원지구,,,,미적용,,193,8,,,,포항시,054-270-8282,2019-06-30
두원주유소 앞,지진해일대피소,지진해일 긴급대피장소,공터,경상북도 포항시 남구 장기면 두원리 57-1,경상북도 포항시 남구 장기면 두원리 57-1,35.848910,129.518114,138.6,42,Y,054-270-8282,,두원지구,,,,미적용,,425,22,,,,포항시,054-270-8282,2019-06-30
계원주유소 앞,지진해일대피소,지진해일 긴급대피장소,공터,경상북도 포항시 남구 장기면 계원리 324,경상북도 포항시 남구 장기면 계원리 324,35.861353,129.525361,155.1,47,Y,054-270-8282,,계원지구,,,,미적용,,240,16,,,,포항시,054-270-8282,2019-06-30
등대회식당 버스승강장,지진해일대피소,지진해일 긴급대피장소,공터,경상북도 포항시 남구 장기면 계원리 26-3,경상북도 포항시 남구 장기면 계원리 26-3,35.867752,129.530252,165,50,Y,054-270-8282,,계원지구,,,,미적용,,278,35,,,,포항시,054-270-8282,2019-06-30
양포초등학교 앞,지진해일대피소,지진해일 긴급대피장소,운동장,경상북도 포항시 남구 장기면 양포리 487-18,경상북도 포항시 남구 장기면 양포리 487-18,35.876275,129.513163,660,200,Y,054-270-8282,,양포지구,,,,미적용,,586,10,,,,포항시,054-270-8282,2019-06-30
신창리 400-1앞 도로 옆 공터,지진해일대피소,지진해일 긴급대피장소,공터,경상북도 포항시 남구 장기면 신창리 400-1,경상북도 포항시 남구 장기면 신창리 400-1,35.884201,129.526961,214.5,65,Y,054-270-8282,,양포지구,,,,미적용,,640,25,,,,포항시,054-270-8282,2019-06-30
신창리 산405-7 공터,지진해일대피소,지진해일 긴급대피장소,공터,경상북도 포항시 남구 장기면 신창리 479-4,경상북도 포항시 남구 장기면 신창리 479-4,35.885252,129.526631,99,30,Y,054-270-8282,,신창지구,,,,미적용,,200,19,,,,포항시,054-270-8282,2019-06-30
신창리 산 52번지 공터,지진해일대피소,지진해일 긴급대피장소,공터,경상북도 포항시 남구 장기면 신창리 산52,경상북도 포항시 남구 장기면 신창리 산52,35.892180,129.522999,158.4,48,Y,054-270-8282,,신창지구,,,,미적용,,150,15,,,,포항시,054-270-8282,2019-06-30
신창리 산15-1 공터,지진해일대피소,지진해일 긴급대피장소,공터,경상북도 포항시 남구 장기면 신창리 산13-1,경상북도 포항시 남구 장기면 신창리 산13-1,35.900656,129.525119,99,30,Y,054-270-8282,,신창지구,,,,미적용,,300,26,,,,포항시,054-270-8282,2019-06-30
영암리 버스승강장 앞,지진해일대피소,지진해일 긴급대피장소,공터,경상북도 포항시 남구 장기면 영암리 101-2,경상북도 포항시 남구 장기면 영암리 101-2,35.903872,129.525903,128.7,39,Y,054-270-8282,,영암지구,,,,미적용,,215,18,,,,포항시,054-270-8282,2019-06-30
영암분교 앞,지진해일대피소,지진해일 긴급대피장소,운동장,경상북도 포항시 남구 장기면 영암리 344-2,경상북도 포항시 남구 장기면 영암리 344-2,35.9099047739,129.524977825,165,50,Y,054-270-8282,,영암지구,,,,미적용,,315,16,,,,포항시,054-270-8282,2019-06-30
대진주유소 앞,지진해일대피소,지진해일 긴급대피장소,공터,경상북도 포항시 남구 장기면 대진리 87-3,경상북도 포항시 남구 장기면 대진리 87-3,35.923033,129.517386,66,20,Y,054-270-8282,,모포지구,,,,미적용,,420,17,,,,포항시,054-270-8282,2019-06-30
모포초등학교 앞,지진해일대피소,지진해일 긴급대피장소,운동장,경상북도 포항시 남구 장기면 모포리 94-2,경상북도 포항시 남구 장기면 모포리 94-2,35.934327,129.523437,66,20,Y,054-270-8282,,모포지구,,,,미적용,,500,10,,,,포항시,054-270-8282,2019-06-30
구평리 115-3 도로 옆 공터,지진해일대피소,지진해일 긴급대피장소,공터,경상북도 포항시 남구 구룡포읍 구평리 115-3,경상북도 포항시 남구 구룡포읍 구평리 115-3,35.944838,129.533744,290.4,88,Y,054-270-8282,,구평지구,,,,미적용,,470,27,,,,포항시,054-270-8282,2019-06-30
장길리교회 앞,지진해일대피소,지진해일 긴급대피장소,공터,경상북도 포항시 남구 구룡포읍 장길리 109-3,경상북도 포항시 남구 구룡포읍 장길리 109-3,35.954784,129.545322,108.9,33,Y,054-270-8282,,하정지구,,,,미적용,,425,20,,,,포항시,054-270-8282,2019-06-30
하정리 269번지 도로,지진해일대피소,지진해일 긴급대피장소,공터,경상북도 포항시 남구 구룡포읍 하정리 269,경상북도 포항시 남구 구룡포읍 하정리 269,35.965697,129.546723,99,30,Y,054-270-8282,,하정지구,,,,미적용,,320,15,,,,포항시,054-270-8282,2019-06-30
하정축양장 앞 공터,지진해일대피소,지진해일 긴급대피장소,공터,경상북도 포항시 남구 구룡포읍 하정리 119-9,경상북도 포항시 남구 구룡포읍 하정리 119-9,35.970499,129.552429,99,30,Y,054-270-8282,,하정지구,,,,미적용,,710,13,,,,포항시,054-270-8282,2019-06-30
경상북도대수련원 앞 공터,지진해일대피소,지진해일 긴급대피장소,공터,경상북도 포항시 남구 구룡포읍 하정리 31-3,경상북도 포항시 남구 구룡포읍 하정리 31-3,35.975646,129.550799,264,80,Y,054-270-8282,,병포지구,,,,미적용,,670,16,,,,포항시,054-270-8282,2019-06-30
"구, 포항과학기술고등학교 앞",지진해일대피소,지진해일 긴급대피장소,운동장,경상북도 포항시 남구 구룡포읍 병포리 139-1,경상북도 포항시 남구 구룡포읍 병포리 139-1,35.9829759975,129.550220399,825,250,Y,054-270-8282,,병포지구,,,,미적용,,760,11,,,,포항시,054-270-8282,2019-06-30
동해초등학교 앞,지진해일대피소,지진해일 긴급대피장소,운동장,경상북도 포항시 남구 동해면 도구리 670,경상북도 포항시 남구 동해면 도구리 670,35.9879326873,129.441072365,171.6,52,Y,054-270-8282,,도구지구,,,,미적용,,460,11,,,,포항시,054-270-8282,2019-06-30
구룡포 초등학교 앞,지진해일대피소,지진해일 긴급대피장소,운동장,경상북도 포항시 남구 구룡포읍 구룡포리 765-1,경상북도 포항시 남구 구룡포읍 구룡포리 765-1,35.9909042493,129.551752854,1320,400,Y,054-270-8282,,구룡포지구,,,,미적용,,300,18,,,,포항시,054-270-8282,2019-06-30
충혼탑 앞,지진해일대피소,지진해일 긴급대피장소,공터,경상북도 포항시 남구 구룡포읍 구룡포리 382-7,경상북도 포항시 남구 구룡포읍 구룡포리 382-7,35.991542,129.56083213,495,150,Y,054-270-8282,,구룡포지구,,,,미적용,,130,19,,,,포항시,054-270-8282,2019-06-30
구룡포중학교 앞,지진해일대피소,지진해일 긴급대피장소,운동장,경상북도 포항시 남구 구룡포읍 구룡포리 316,경상북도 포항시 남구 구룡포읍 구룡포리 316,35.992519,129.564518,1650,500,Y,054-270-8282,,구룡포지구,,,,미적용,,100,11,,,,포항시,054-270-8282,2019-06-30
해병대 북문 주변,지진해일대피소,지진해일 긴급대피장소,공터,경상북도 포항시 남구 일월동 675-1,경상북도 포항시 남구 일월동 675-1,35.994208,129.414684,330,100,Y,054-270-8282,,청림지구,,,,미적용,,1040,13,,,,포항시,054-270-8282,2019-06-30
임곡1리 버스승강장 앞,지진해일대피소,지진해일 긴급대피장소,공터,경상북도 포항시 남구 동해면 임곡리 543-8,경상북도 포항시 남구 동해면 임곡리 543-8,35.994342,129.457558,66,20,Y,054-270-8282,,임곡지구,,,,미적용,,200,29,,,,포항시,054-270-8282,2019-06-30
호미로 395 도로,지진해일대피소,지진해일 긴급대피장소,공터,경상북도 포항시 남구 구룡포읍 구룡포리 331-18,경상북도 포항시 남구 구룡포읍 구룡포리 331-18,35.9942969349,129.565192838,825,250,Y,054-270-8282,,구룡포지구,,,,미적용,,160,10,,,,포항시,054-270-8282,2019-06-30
청림초등학교 앞,지진해일대피소,지진해일 긴급대피장소,운동장,경상북도 포항시 남구 청림동 950,경상북도 포항시 남구 청림동 950,35.995989964,129.404386795,660,200,Y,054-270-8282,,청림지구,,,,미적용,,1750,14,,,,포항시,054-270-8282,2019-06-30
해은사 앞,지진해일대피소,지진해일 긴급대피장소,공터,경상북도 포항시 남구 구룡포읍 구룡포리 13-8,경상북도 포항시 남구 구룡포읍 구룡포리 13-8,35.997857,129.565305,1056,320,Y,054-270-8282,,구룡포지구,,,,미적용,,160,12,,,,포항시,054-270-8282,2019-06-30
MGM 그랜드모텔 앞,지진해일대피소,지진해일 긴급대피장소,공터,경상북도 포항시 남구 구룡포읍 삼정리 489-2,경상북도 포항시 남구 구룡포읍 삼정리 489-2,36.000136,129.568510,198,60,Y,054-270-8282,,삼정지구,,,,미적용,,260,17,,,,포항시,054-270-8282,2019-06-30
청룡회관 입구,지진해일대피소,지진해일 긴급대피장소,공터,경상북도 포항시 남구 동해면 임곡리 309-3,경상북도 포항시 남구 동해면 임곡리 309-3,36.000437,129.461034,69.3,21,Y,054-270-8282,,임곡지구,,,,미적용,,300,33,,,,포항시,054-270-8282,2019-06-30
삼정2리 버스승강장 앞,지진해일대피소,지진해일 긴급대피장소,공터,경상북도 포항시 남구 구룡포읍 삼정리 148-40,경상북도 포항시 남구 구룡포읍 삼정리 148-40,36.0054957711,129.574174,198,60,Y,054-270-8282,,삼정지구,,,,미적용,,186,20,,,,포항시,054-270-8282,2019-06-30
옛네식당 옆 공터,지진해일대피소,지진해일 긴급대피장소,공터,경상북도 포항시 남구 동해면 입암리 666-2,경상북도 포항시 남구 동해면 입암리 666-2,36.007458,129.467198,69.3,21,Y,054-270-8282,,입암지구,,,,미적용,,180,33,,,,포항시,054-270-8282,2019-06-30
포스코수련원 앞,지진해일대피소,지진해일 긴급대피장소,공터,경상북도 포항시 남구 구룡포읍 삼정리 95-3,경상북도 포항시 남구 구룡포읍 삼정리 95-3,36.009640,129.576731,264,80,Y,054-270-8282,,삼정지구,,,,미적용,,260,11,,,,포항시,054-270-8282,2019-06-30
입암2리마을회관 앞 공터,지진해일대피소,지진해일 긴급대피장소,공터,경상북도 포항시 남구 동해면 입암리 424-3,경상북도 포항시 남구 동해면 입암리 424-3,36.013348,129.477202,66,20,Y,054-270-8282,,입암지구,,,,미적용,,175,27,,,,포항시,054-270-8282,2019-06-30
남구 구룡포읍 석병리 904-2,지진해일대피소,지진해일 긴급대피장소,공터,경상북도 포항시 남구 구룡포읍 석병리 904-2,경상북도 포항시 남구 구룡포읍 석병리 904-2,36.014763,129.576528,224.4,68,Y,054-270-8282,,삼정지구,,,,미적용,,300,25,,,,포항시,054-270-8282,2019-06-30
마산리 버스승강장 앞 공터,지진해일대피소,지진해일 긴급대피장소,공터,경상북도 포항시 남구 동해면 마산리 247-2,경상북도 포항시 남구 동해면 마산리 247-2,36.015477,129.486890,66,20,Y,054-270-8282,,흥환지구,,,,미적용,,200,32,,,,포항시,054-270-8282,2019-06-30
마산리 마을 뒤 공터,지진해일대피소,지진해일 긴급대피장소,공터,경상북도 포항시 남구 동해면 마산리 69-1,경상북도 포항시 남구 동해면 마산리 69-1,36.015485,129.489447,66,20,Y,054-270-8282,,흥환지구,,,,미적용,,320,21,,,,포항시,054-270-8282,2019-06-30
석병교회 옆,지진해일대피소,지진해일 긴급대피장소,공터,경상북도 포항시 남구 구룡포읍 석병리 640-2,경상북도 포항시 남구 구룡포읍 석병리 640-2,36.0215256851,129.578199765,132,40,Y,054-270-8282,,석병지구,,,,미적용,,500,27,,,,포항시,054-270-8282,2019-06-30
흥환주유소 옆 공터,지진해일대피소,지진해일 긴급대피장소,공터,경상북도 포항시 남구 동해면 흥환리 442-4,경상북도 포항시 남구 동해면 흥환리 442-4,36.024413,129.506846,66,20,Y,054-270-8282,,흥환지구,,,,미적용,,575,26,,,,포항시,054-270-8282,2019-06-30
흥환리 마을회관 뒷산,지진해일대피소,지진해일 긴급대피장소,공터,경상북도 포항시 남구 동해면 흥환리 320,경상북도 포항시 남구 동해면 흥환리 320,36.026099,129.503968,39.6,12,Y,054-270-8282,,흥환지구,,,,미적용,,100,16,,,,포항시,054-270-8282,2019-06-30
구룡포청소년회관 앞,지진해일대피소,지진해일 긴급대피장소,공터,경상북도 포항시 남구 구룡포읍 석병리 251,경상북도 포항시 남구 구룡포읍 석병리 251,36.029447,129.574099,99,30,Y,054-270-8282,,석병지구,,,,미적용,,1150,48,,,,포항시,054-270-8282,2019-06-30
대성수산 입구 앞,지진해일대피소,지진해일 긴급대피장소,공터,경상북도 포항시 남구 구룡포읍 석병리 20-1,경상북도 포항시 남구 구룡포읍 석병리 20-1,36.031566,129.578163,99,30,Y,054-270-8282,,석병지구,,,,미적용,,700,20,,,,포항시,054-270-8282,2019-06-30
발산교회 옆 공터,지진해일대피소,지진해일 긴급대피장소,공터,경상북도 포항시 남구 동해면 발산리 376-1,경상북도 포항시 남구 동해면 발산리 376-1,36.0334771742,129.507829864,99,30,Y,054-270-8282,,발산지구,,,,미적용,,400,19,,,,포항시,054-270-8282,2019-06-30
송도초등학교,지진해일대피소,지진해일 긴급대피장소,운동장,경상북도 포항시 남구 송도동 311-285,경상북도 포항시 남구 송도동 311-285,36.033809,129.379987,50777.1,15387,Y,054-270-8282,,송도2지구,,,,미적용,,540,6,,,,포항시,054-270-8282,2019-06-30
오륙도 주유소 옆 공터,지진해일대피소,지진해일 긴급대피장소,공터,경상북도 포항시 남구 호미곶면 강사리 212-1,경상북도 포항시 남구 호미곶면 강사리 212-1,36.035997,129.577848,211.2,64,Y,054-270-8282,,강사1지구,,,,미적용,,390,14,,,,포항시,054-270-8282,2019-06-30
포항시립아트홀 앞,지진해일대피소,지진해일 긴급대피장소,공터,경상북도 포항시 북구 덕산동 129-1,경상북도 포항시 북구 덕산동 129-1,36.041881,129.364215,330,100,Y,054-270-8282,,송도1지구,,,,미적용,,1560,10,,,,포항시,054-270-8282,2019-06-30
발산2리 마을뒤 공터,지진해일대피소,지진해일 긴급대피장소,공터,경상북도 포항시 남구 동해면 발산리 116-2,경상북도 포항시 남구 동해면 발산리 116-2,36.045242,129.519220,102.3,31,Y,054-270-8282,,발산지구,,,,미적용,,530,30,,,,포항시,054-270-8282,2019-06-30
강사교회 앞 공터,지진해일대피소,지진해일 긴급대피장소,공터,경상북도 포항시 남구 호미곶면 강사리 424-2,경상북도 포항시 남구 호미곶면 강사리 424-2,36.047068,129.577206,69.3,21,Y,054-270-8282,,강사2지구,,,,미적용,,670,20,,,,포항시,054-270-8282,2019-06-30
해송모텔 앞,지진해일대피소,지진해일 긴급대피장소,공터,경상북도 포항시 남구 호미곶면 강사리 756-5,경상북도 포항시 남구 호미곶면 강사리 756-5,36.055162,129.576221,66,20,Y,054-270-8282,,강사2지구,,,,미적용,,670,18,,,,포항시,054-270-8282,2019-06-30
대동배1리보건진료소 앞,지진해일대피소,지진해일 긴급대피장소,공터,경상북도 포항시 남구 호미곶면 대동배리 420-2,경상북도 포항시 남구 호미곶면 대동배리 420-2,36.055624,129.531125,132,40,Y,054-270-8282,,대동배지구,,,,미적용,,180,15,,,,포항시,054-270-8282,2019-06-30
포항고등학교 앞,지진해일대피소,지진해일 긴급대피장소,운동장,경상북도 포항시 북구 학산동 288,경상북도 포항시 북구 학산동 288,36.057372973,129.370524627,6600,2000,Y,054-270-8282,,두호지구,,,,미적용,,1130,26,,,,포항시,054-270-8282,2019-06-30
학산5어린이공원,지진해일대피소,지진해일 긴급대피장소,공터,경상북도 포항시 북구 항구동 345,경상북도 포항시 북구 항구동 345,36.057121,129.375586,3342.9,1013,Y,054-270-8282,,두호지구,,,,미적용,,330,20,,,,포항시,054-270-8282,2019-06-30
대동배1리마을뒷산,지진해일대피소,지진해일 긴급대피장소,공터,경상북도 포항시 남구 호미곶면 대동배리 359,경상북도 포항시 남구 호미곶면 대동배리 359,36.058202,129.534475,99,30,Y,054-270-8282,,대동배지구,,,,미적용,,500,33,,,,포항시,054-270-8282,2019-06-30
두호1어린이공원,지진해일대피소,지진해일 긴급대피장소,공터,경상북도 포항시 북구 두호동 1092,경상북도 포항시 북구 두호동 1092,36.064505,129.381502,4290,1300,Y,054-270-8282,,두호지구,,,,미적용,,1150,15,,,,포항시,054-270-8282,2019-06-30
대동배2리버스승강장앞,지진해일대피소,지진해일 긴급대피장소,공터,경상북도 포항시 남구 호미곶면 대동배리 48-2,경상북도 포항시 남구 호미곶면 대동배리 48-2,36.065015,129.540546,99,30,Y,054-270-8282,,대동배지구,,,,미적용,,250,26,,,,포항시,054-270-8282,2019-06-30
대천수산 입구,지진해일대피소,지진해일 긴급대피장소,공터,경상북도 포항시 남구 대보면 대보리 15-9,경상북도 포항시 남구 대보면 대보리 15-9,36.065226,129.570195,99,30,Y,054-270-8282,,호미곶지구,,,,미적용,,250,17,,,,포항시,054-270-8282,2019-06-30
대동배2리마을 뒤,지진해일대피소,지진해일 긴급대피장소,공터,경상북도 포항시 남구 호미곶면 대동배리 산26-6,경상북도 포항시 남구 호미곶면 대동배리 산26-6,36.065729,129.537621,155.1,47,Y,054-270-8282,,대동배지구,,,,미적용,,150,28,,,,포항시,054-270-8282,2019-06-30
환호동해맞이공원,지진해일대피소,지진해일 긴급대피장소,공터,경상북도 포항시 북구 환호동 323-3,경상북도 포항시 북구 환호동 323-3,36.068093,129.395057,37950,11500,Y,054-270-8282,,환여지구,,,,미적용,,500,17,,,,포항시,054-270-8282,2019-06-30
환호 여중 앞,지진해일대피소,지진해일 긴급대피장소,운동장,경상북도 포항시 북구 환호동 69,경상북도 포항시 북구 환호동 69,36.0710657203,129.400318546,1650,500,Y,054-270-8282,,환여지구,,,,미적용,,800,16,,,,포항시,054-270-8282,2019-06-30
해안로511번길,지진해일대피소,지진해일 긴급대피장소,공터,경상북도 포항시 북구 여남동 97,경상북도 포항시 북구 여남동 97,36.0734965983,129.413107,1329.9,403,Y,054-270-8282,,환여지구,,,,미적용,,250,30,,,,포항시,054-270-8282,2019-06-30
포항해양과학고 앞,지진해일대피소,지진해일 긴급대피장소,운동장,경상북도 포항시 북구 환호동 2-8,경상북도 포항시 북구 환호동 2-8,36.073914,129.406266,1320,400,Y,054-270-8282,,환여지구,,,,미적용,,500,22,,,,포항시,054-270-8282,2019-06-30
해맞이광장입구 버스승강장,지진해일대피소,지진해일 긴급대피장소,공터,경상북도 포항시 남구 호미곶면 대보리 294-2,경상북도 포항시 남구 호미곶면 대보리 294-2,36.076651,129.565001,99,30,Y,054-270-8282,,호미곶지구,,,,미적용,,570,12,,,,포항시,054-270-8282,2019-06-30
대보초등학교 앞,지진해일대피소,지진해일 긴급대피장소,운동장,경상북도 포항시 남구 호미곶면 구만리 123,경상북도 포항시 남구 호미곶면 구만리 123,36.078595,129.557246,339.9,103,Y,054-270-8282,,호미곶지구,,,,미적용,,500,12,,,,포항시,054-270-8282,2019-06-30
호미곶면사무소 앞,지진해일대피소,지진해일 긴급대피장소,공터,경상북도 포항시 남구 호미곶면 구만리 47-6,경상북도 포항시 남구 호미곶면 구만리 47-6,36.0807799793,129.555732,132,40,Y,054-270-8282,,호미곶지구,,,,미적용,,600,22,,,,포항시,054-270-8282,2019-06-30
구만리 389-1 주변,지진해일대피소,지진해일 긴급대피장소,공터,경상북도 포항시 남구 호미곶면 구만리 389-1,경상북도 포항시 남구 호미곶면 구만리 389-1,36.081356,129.550861,330,100,Y,054-270-8282,,구만지구,,,,미적용,,475,29,,,,포항시,054-270-8282,2019-06-30
남구 호미곶면 구만길 128,지진해일대피소,지진해일 긴급대피장소,공터,경상북도 포항시 남구 대보면 구만리 488-3,경상북도 포항시 남구 대보면 구만리 488-3,36.084281,129.548189,310.2,94,Y,054-270-8282,,구만지구,,,,미적용,,300,20,,,,포항시,054-270-8282,2019-06-30
해뜨는집 앞 공터,지진해일대피소,지진해일 긴급대피장소,공터,경상북도 포항시 북구 흥해읍 죽천리 173-16,경상북도 포항시 북구 흥해읍 죽천리 173-16,36.088858,129.417614,99,30,Y,054-270-8282,,죽천지구,,,,미적용,,400,32,,,,포항시,054-270-8282,2019-06-30
죽천마을입구 앞 버스정류장,지진해일대피소,지진해일 긴급대피장소,공터,경상북도 포항시 북구 흥해읍 죽천리 146-2,경상북도 포항시 북구 흥해읍 죽천리 146-2,36.091378,129.417658,66,20,Y,054-270-8282,,죽천지구,,,,미적용,,300,21,,,,포항시,054-270-8282,2019-06-30
죽천초등학교 앞,지진해일대피소,지진해일 긴급대피장소,운동장,경상북도 포항시 북구 흥해읍 우목리 105,경상북도 포항시 북구 흥해읍 우목리 105,36.098536,129.427807,396,120,Y,054-270-8282,,죽천지구,,,,미적용,,200,30,,,,포항시,054-270-8282,2019-06-30
용한1리 마을입구,지진해일대피소,지진해일 긴급대피장소,공터,경상북도 포항시 북구 흥해읍 용한리 산 41-1,경상북도 포항시 북구 흥해읍 용한리 산 41-1,36.110108,129.426578,69.3,21,Y,054-270-8282,,용한지구,,,,미적용,,200,36,,,,포항시,054-270-8282,2019-06-30
곡강3리 마을뒷편 공터,지진해일대피소,지진해일 긴급대피장소,공터,경상북도 포항시 북구 흥해읍 곡강리 산87,경상북도 포항시 북구 흥해읍 곡강리 산87,36.127699,129.398819,92.4,28,Y,054-270-8282,,곡강지구,,,,미적용,,300,25,,,,포항시,054-270-8282,2019-06-30
칠포해수욕장위부대앞,지진해일대피소,지진해일 긴급대피장소,공터,경상북도 포항시 북구 흥해읍 칠포리 산109-10,경상북도 포항시 북구 흥해읍 칠포리 산109-10,36.132860,129.396454,99,30,Y,054-270-8282,,곡강지구,,,,미적용,,400,37,,,,포항시,054-270-8282,2019-06-30
칠포2주유소 앞 공터,지진해일대피소,지진해일 긴급대피장소,공터,경상북도 포항시 북구 흥해읍 칠포리 265-1,경상북도 포항시 북구 흥해읍 칠포리 265-1,36.140917,129.392479,112.2,34,Y,054-270-8282,,칠포2지구,,,,미적용,,200,18,,,,포항시,054-270-8282,2019-06-30
칠포1리 고지대,지진해일대피소,지진해일 긴급대피장소,공터,경상북도 포항시 북구 흥해읍 칠포리 54-4,경상북도 포항시 북구 흥해읍 칠포리 54-4,36.145546,129.396857,801.9,243,Y,054-270-8282,,칠포1지구,,,,미적용,,200,18,,,,포항시,054-270-8282,2019-06-30
오도해수욕장 입구,지진해일대피소,지진해일 긴급대피장소,공터,경상북도 포항시 북구 흥해읍 오도리 359-3,경상북도 포항시 북구 흥해읍 오도리 359-3,36.154187,129.398375,92.4,28,Y,054-270-8282,,오도지구,,,,미적용,,150,21,,,,포항시,054-270-8282,2019-06-30
작은펜션 앞 공터,지진해일대피소,지진해일 긴급대피장소,공터,경상북도 포항시 북구 흥해읍 오도리 246-3,경상북도 포항시 북구 흥해읍 오도리 246-3,36.157968,129.396314,99,30,Y,054-270-8282,,오도지구,,,,미적용,,200,35,,,,포항시,054-270-8282,2019-06-30
사랑의유람선 앞,지진해일대피소,지진해일 긴급대피장소,공터,경상북도 포항시 북구 흥해읍 오도리 74-7,경상북도 포항시 북구 흥해읍 오도리 74-7,36.163778,129.397882,99,30,Y,054-270-8282,,오도지구,,,,미적용,,200,17,,,,포항시,054-270-8282,2019-06-30
스타팜펜션 앞 공터,지진해일대피소,지진해일 긴급대피장소,공터,경상북도 포항시 북구 청하면 청진리 413,경상북도 포항시 북구 청하면 청진리 413,36.1705077276,129.396188601,165,50,Y,054-270-8282,,청진지구,,,,미적용,,100,18,,,,포항시,054-270-8282,2019-06-30
선정마을입구 앞,지진해일대피소,지진해일 긴급대피장소,공터,경상북도 포항시 북구 청하면 청진리 309,경상북도 포항시 북구 청하면 청진리 309,36.174767,129.392877,165,50,Y,054-270-8282,,청진지구,,,,미적용,,450,23,,,,포항시,054-270-8282,2019-06-30
청진1리 GS주유소 앞,지진해일대피소,지진해일 긴급대피장소,공터,경상북도 포항시 북구 청하면 청진리 78,경상북도 포항시 북구 청하면 청진리 78,36.179154,129.390402,165,50,Y,054-270-8282,,청진지구,,,,미적용,,250,32,,,,포항시,054-270-8282,2019-06-30
이가힐펜션 앞,지진해일대피소,지진해일 긴급대피장소,공터,경상북도 포항시 북구 청하면 이가리 555-4,경상북도 포항시 북구 청하면 이가리 555-4,36.184374,129.383847,264,80,Y,054-270-8282,,이가지구,,,,미적용,,450,20,,,,포항시,054-270-8282,2019-06-30
이가리 산23-1 일원,지진해일대피소,지진해일 긴급대피장소,공터,경상북도 포항시 북구 청하면 이가리 산23-1,경상북도 포항시 북구 청하면 이가리 산23-1,36.185618,129.381904,132,40,Y,054-270-8282,,이가지구,,,,미적용,,50,20,,,,포항시,054-270-8282,2019-06-30
오션뷰 펜션 앞,지진해일대피소,지진해일 긴급대피장소,공터,경상북도 포항시 북구 청하면 용두리 49-2,경상북도 포항시 북구 청하면 용두리 49-2,36.194760,129.369757,504.9,153,Y,054-270-8282,,용두지구,,,,미적용,,600,20,,,,포항시,054-270-8282,2019-06-30
월포초교 뒷뜰앞,지진해일대피소,지진해일 긴급대피장소,공터,경상북도 포항시 북구 청하면 용두리 569-4,경상북도 포항시 북구 청하면 용두리 569-4,36.203299,129.364987,2970,900,Y,054-270-8282,,월포지구,,,,미적용,,800,14,,,,포항시,054-270-8282,2019-06-30
월포다리 뒤 공터,지진해일대피소,지진해일 긴급대피장소,공터,경상북도 포항시 북구 청하면 월포리 3-17,경상북도 포항시 북구 청하면 월포리 3-17,36.2079776595,129.372837402,349.8,106,Y,054-270-8282,,월포지구,,,,미적용,,200,10,,,,포항시,054-270-8282,2019-06-30
월포백번횟집앞,지진해일대피소,지진해일 긴급대피장소,공터,경상북도 포항시 북구 청하면 방어리 313,경상북도 포항시 북구 청하면 방어리 313,36.2085840705,129.37678238,495,150,Y,054-270-8282,,방어지구,,,,미적용,,100,13,,,,포항시,054-270-8282,2019-06-30
방어침례교회 앞,지진해일대피소,지진해일 긴급대피장소,공터,경상북도 포항시 북구 청하면 방어리 122,경상북도 포항시 북구 청하면 방어리 122,36.212288,129.381692,660,200,Y,054-270-8282,,방어지구,,,,미적용,,200,13,,,,포항시,054-270-8282,2019-06-30
조사리버스승강장 앞,지진해일대피소,지진해일 긴급대피장소,공터,경상북도 포항시 북구 송라면 조사리 71-12,경상북도 포항시 북구 송라면 조사리 71-12,36.222801,129.384556,396,120,Y,054-270-8282,,방석지구,,,,미적용,,200,13,,,,포항시,054-270-8282,2019-06-30
1박2일펜션 앞,지진해일대피소,지진해일 긴급대피장소,공터,경상북도 포항시 북구 송라면 방석리 104,경상북도 포항시 북구 송라면 방석리 104,36.234387,129.381090,1494.9,453,Y,054-270-8282,,방석지구,,,,미적용,,600,23,,,,포항시,054-270-8282,2019-06-30
화진1리 버스정류장 옆,지진해일대피소,지진해일 긴급대피장소,공터,경상북도 포항시 북구 송라면 화진리 261-1,경상북도 포항시 북구 송라면 화진리 261-1,36.236767,129.382442,198,60,Y,054-270-8282,,화진지구,,,,미적용,,900,25,,,,포항시,054-270-8282,2019-06-30
화진2리 비취모텔 앞,지진해일대피소,지진해일 긴급대피장소,공터,경상북도 포항시 북구 송라면 화진리 185-3,경상북도 포항시 북구 송라면 화진리 185-3,36.239719,129.381601,1181.4,358,Y,054-270-8282,,화진지구,,,,미적용,,300,23,,,,포항시,054-270-8282,2019-06-30
화진교 옆 공터,지진해일대피소,지진해일 긴급대피장소,공터,경상북도 포항시 북구 송라면 지경리 412-1,경상북도 포항시 북구 송라면 지경리 412-1,36.250400,129.370156,198,60,Y,054-270-8282,,지경지구,,,,미적용,,450,10,,,,포항시,054-270-8282,2019-06-30
화진휴게소 앞 공터,지진해일대피소,지진해일 긴급대피장소,공터,경상북도 포항시 북구 송라면 지경리 331-5,경상북도 포항시 북구 송라면 지경리 331-5,36.254449,129.371937,660,200,Y,054-270-8282,,지경지구,,,,미적용,,300,15,,,,포항시,054-270-8282,2019-06-30
지경검문소 앞 공터,지진해일대피소,지진해일 긴급대피장소,공터,경상북도 포항시 북구 송라면 지경리 199-2,경상북도 포항시 북구 송라면 지경리 199-2,36.262935,129.374375,198,60,Y,054-270-8282,,지경지구,,,,미적용,,300,18,,,,포항시,054-270-8282,2019-06-30
국도변,지진해일대피소,지진해일 긴급대피장소,공터,경상북도 영덕군 남정면 부경리,경상북도 영덕군 남정면 부경리,36.271919,129.369476,660,200,Y,054-730-6521,,부경지구,,,,미적용,,90,30,,,,영덕군,054-730-6521,2019-06-30
장사해돋이휴게소 주차장,지진해일대피소,지진해일 긴급대피장소,공터,경상북도 영덕군 남정면 원척리 267-9,경상북도 영덕군 남정면 원척리 267-9,36.2961944271,129.376553943,660,200,Y,054-730-6521,,부경지구,,,,미적용,,90,30,,,,영덕군,054-730-6521,2019-06-30
부흥2리 뒷산,지진해일대피소,지진해일 긴급대피장소,공터,경상북도 영덕군 남정면 장사리,경상북도 영덕군 남정면 장사리,36.283620,129.370855,825,250,Y,054-730-6521,,장사지구,,,,미적용,,900,30,,,,영덕군,054-730-6521,2019-06-30
남정중학교,지진해일대피소,지진해일 긴급대피장소,공터,경상북도 영덕군 남정면 장사리,경상북도 영덕군 남정면 장사리,36.287882,129.367869,1650,500,Y,054-730-6521,,장사지구,,,,미적용,,1000,30,,,,영덕군,054-730-6521,2019-06-30
마을회관,지진해일대피소,지진해일 긴급대피장소,공터,경상북도 영덕군 남정면 부흥1리,경상북도 영덕군 남정면 부흥1리,36.292300,129.377367,990,300,Y,054-730-6521,,부흥지구,,,,미적용,,130,30,,,,영덕군,054-730-6521,2019-06-30
경보휴게소,지진해일대피소,지진해일 긴급대피장소,공터,경상북도 영덕군 남정면 원척리 297-9,경상북도 영덕군 남정면 원척리 297-9,36.296078,129.376547,990,300,Y,054-730-6521,,원척지구,,,,미적용,,150,30,,,,영덕군,054-730-6521,2019-06-30
마을공터,지진해일대피소,지진해일 긴급대피장소,공터,경상북도 영덕군 남정면 원척리,경상북도 영덕군 남정면 원척리,36.305206,129.369027,660,200,Y,054-730-6521,,원척지구,,,,미적용,,70,30,,,,영덕군,054-730-6521,2019-06-30
마을뒷산,지진해일대피소,지진해일 긴급대피장소,공터,경상북도 영덕군 남정면 남정면 구계리,경상북도 영덕군 남정면 남정면 구계리,36.317709,129.364583,726,220,Y,054-730-6521,,구계지구,,,,미적용,,220,20,,,,영덕군,054-730-6521,2019-06-30
제당뒷산,지진해일대피소,지진해일 긴급대피장소,공터,경상북도 영덕군 남정면 남정면 구계리,경상북도 영덕군 남정면 남정면 구계리,36.317709,129.364583,1023,310,Y,054-730-6521,,구계지구,,,,미적용,,310,25,,,,영덕군,054-730-6521,2019-06-30
아이씨프라자,지진해일대피소,지진해일 긴급대피장소,공터,경상북도 영덕군 남정면 남정면 구계리,경상북도 영덕군 남정면 남정면 구계리,36.319350,129.375865,495,150,Y,054-730-6521,,구계지구,,,,미적용,,50,30,,,,영덕군,054-730-6521,2019-06-30
마을뒷산,지진해일대피소,지진해일 긴급대피장소,공터,경상북도 영덕군 남정면 남정면 구계리,경상북도 영덕군 남정면 남정면 구계리,36.319516,129.376904,495,150,Y,054-730-6521,,금곡1지구,,,,미적용,,700,25,,,,영덕군,054-730-6521,2019-06-30
남호승강장,지진해일대피소,지진해일 긴급대피장소,공터,경상북도 영덕군 남정면 남정면 남호리,경상북도 영덕군 남정면 남정면 남호리,36.333401,129.373778,330,100,Y,054-730-6521,,남호지구,,,,미적용,,120,30,,,,영덕군,054-730-6521,2019-06-30
씨아일랜드주차장,지진해일대피소,지진해일 긴급대피장소,공터,경상북도 영덕군 강구면 삼사리 631-8,경상북도 영덕군 강구면 삼사리 631-8,36.340158,129.381578,165,50,Y,054-730-6521,,삼사지구,,,,미적용,,60,10,,,,영덕군,054-730-6521,2019-06-30
삼사공원입구2,지진해일대피소,지진해일 긴급대피장소,기타,경상북도 영덕군 강구면 삼사리 234,경상북도 영덕군 강구면 삼사리 234,36.345255,129.384945,495,150,Y,054-730-6521,,삼사지구,,,,미적용,,100,27,,,,영덕군,054-730-6521,2019-06-30
삼사공원입구1,지진해일대피소,지진해일 긴급대피장소,기타,경상북도 영덕군 강구면 삼사리 753-1,경상북도 영덕군 강구면 삼사리 753-1,36.345435,129.382064,1650,500,Y,054-730-6521,,삼사지구,,,,미적용,,250,27,,,,영덕군,054-730-6521,2019-06-30
독도수산뒤,지진해일대피소,지진해일 긴급대피장소,공터,경상북도 영덕군 강구면 삼사리 1-24,경상북도 영덕군 강구면 삼사리 1-24,36.3534296405,129.386695962,1650,500,Y,054-730-6521,,"오포2,3지구",,,,미적용,,160,37,,,,영덕군,054-730-6521,2019-06-30
강구정보고,지진해일대피소,지진해일 긴급대피장소,운동장,경상북도 영덕군 강구면 삼사리 15-1,경상북도 영덕군 강구면 삼사리 15-1,36.353377,129.379949,3960,1200,Y,054-730-6521,,"오포2,3지구",,,,미적용,,1100,22,,,,영덕군,054-730-6521,2019-06-30
오포대게식당뒤,지진해일대피소,지진해일 긴급대피장소,공터,경상북도 영덕군 강구면 오포리 9-40,경상북도 영덕군 강구면 오포리 9-40,36.354011,129.386473,1650,500,Y,054-730-6521,,"오포2,3지구",,,,미적용,,200,33,,,,영덕군,054-730-6521,2019-06-30
강구초등학교,지진해일대피소,지진해일 긴급대피장소,운동장,경상북도 영덕군 강구면 오포리 601,경상북도 영덕군 강구면 오포리 601,36.356862,129.378478,1650,500,Y,054-730-6521,,"오포2,3지구",,,,미적용,,490,20,,,,영덕군,054-730-6521,2019-06-30
수협창고뒤,지진해일대피소,지진해일 긴급대피장소,공터,경상북도 영덕군 강구면 강구리 산50-1,경상북도 영덕군 강구면 강구리 산50-1,36.359965,129.385875,1650,500,Y,054-730-6521,,강구지구,,,,미적용,,400,36,,,,영덕군,054-730-6521,2019-06-30
오포1리 마을뒷산(1),지진해일대피소,지진해일 긴급대피장소,공터,경상북도 영덕군 강구면 오포리 684-1,경상북도 영덕군 강구면 오포리 684-1,36.361722,129.374242,1122,340,Y,054-730-6521,,오포1지구,,,,미적용,,1400,340,,,,영덕군,054-730-6521,2019-06-30
미혜식당뒤,지진해일대피소,지진해일 긴급대피장소,공터,경상북도 영덕군 강구면 강구리 산75-12,경상북도 영덕군 강구면 강구리 산75-12,36.361934,129.392690,1650,500,Y,054-730-6521,,강구지구,,,,미적용,,65,31,,,,영덕군,054-730-6521,2019-06-30
대게축구장입구,지진해일대피소,지진해일 긴급대피장소,공터,경상북도 영덕군 강구면 강구리 산69,경상북도 영덕군 강구면 강구리 산69,36.364052,129.390942,1650,500,Y,054-730-6521,,강구지구,,,,미적용,,800,40,,,,영덕군,054-730-6521,2019-06-30
오포1리 마을뒷산(2),지진해일대피소,지진해일 긴급대피장소,공터,경상북도 영덕군 강구면 오포리 산10,경상북도 영덕군 강구면 오포리 산10,36.364839,129.373347,1122,340,Y,054-730-6521,,오포1지구,,,,미적용,,1500,340,,,,영덕군,054-730-6521,2019-06-30
금진택지입구,지진해일대피소,지진해일 긴급대피장소,공터,경상북도 영덕군 강구면 금진리 665-13,경상북도 영덕군 강구면 금진리 665-13,36.366124,129.393826,660,200,Y,054-730-6521,,금진2지구,,,,미적용,,180,22,,,,영덕군,054-730-6521,2019-06-30
풍성호뒤,지진해일대피소,지진해일 긴급대피장소,공터,경상북도 영덕군 강구면 금진리 630,경상북도 영덕군 강구면 금진리 630,36.368648,129.394469,165,50,Y,054-730-6521,,금진2지구,,,,미적용,,70,20,,,,영덕군,054-730-6521,2019-06-30
소하민박뒤,지진해일대피소,지진해일 긴급대피장소,공터,경상북도 영덕군 강구면 금진리 597,경상북도 영덕군 강구면 금진리 597,36.369197,129.395434662,165,50,Y,054-730-6521,,금진2지구,,,,미적용,,70,20,,,,영덕군,054-730-6521,2019-06-30
대구대학교연수원,지진해일대피소,지진해일 긴급대피장소,공터,경상북도 영덕군 강구면 금진리 85,경상북도 영덕군 강구면 금진리 85,36.380061,129.403438,1650,500,Y,054-730-6521,,금진1지구,,,,미적용,,80,22,,,,영덕군,054-730-6521,2019-06-30
구계승강장,지진해일대피소,지진해일 긴급대피장소,기타,경상북도 영덕군 남정면 남정면 구계리,경상북도 영덕군 남정면 남정면 구계리,36.381937,129.405100,660,200,Y,054-730-6521,,구계지구,,,,미적용,,120,30,,,,영덕군,054-730-6521,2019-06-30
하저문화마을뒤,지진해일대피소,지진해일 긴급대피장소,공터,경상북도 영덕군 강구면 하저리 449-1,경상북도 영덕군 강구면 하저리 449-1,36.389579,129.404467,660,200,Y,054-730-6521,,하저지구,,,,미적용,,310,14,,,,영덕군,054-730-6521,2019-06-30
문화교맞은편뒤,지진해일대피소,지진해일 긴급대피장소,공터,경상북도 영덕군 강구면 하저리 401,경상북도 영덕군 강구면 하저리 401,36.390612,129.406888,330,100,Y,054-730-6521,,하저지구,,,,미적용,,200,15,,,,영덕군,054-730-6521,2019-06-30
푸른바다민박뒤,지진해일대피소,지진해일 긴급대피장소,공터,경상북도 영덕군 강구면 하저리 6-6,경상북도 영덕군 강구면 하저리 6-6,36.393511,129.414122,330,100,Y,054-730-6521,,하저지구,,,,미적용,,270,11,,,,영덕군,054-730-6521,2019-06-30
탁주합동제조장뒤,지진해일대피소,지진해일 긴급대피장소,공터,경상북도 영덕군 강구면 하저리 722,경상북도 영덕군 강구면 하저리 722,36.396418,129.409527,330,100,Y,054-730-6521,,하저지구,,,,미적용,,430,12,,,,영덕군,054-730-6521,2019-06-30
구)마을회관옆,지진해일대피소,지진해일 긴급대피장소,공터,경상북도 영덕군 영덕읍 대부리 273,경상북도 영덕군 영덕읍 대부리 273,36.4013609862,129.421112,495,150,Y,054-730-6521,,대부지구,,,,미적용,,90,35,,,,영덕군,054-730-6521,2019-06-30
창포교회뒤편,지진해일대피소,지진해일 긴급대피장소,공터,경상북도 영덕군 영덕읍 대부리 247-3,경상북도 영덕군 영덕읍 대부리 247-3,36.403933,129.422813,1320,400,Y,054-730-6521,,대부지구,,,,미적용,,85,35,,,,영덕군,054-730-6521,2019-06-30
창포보건소뒤,지진해일대피소,지진해일 긴급대피장소,공터,경상북도 영덕군 영덕읍 창포리 931,경상북도 영덕군 영덕읍 창포리 931,36.407756,129.423395,99,30,Y,054-730-6521,,창포지구,,,,미적용,,100,29,,,,영덕군,054-730-6521,2019-06-30
갈매기횟집뒤,지진해일대피소,지진해일 긴급대피장소,공터,경상북도 영덕군 영덕읍 창포리 911,경상북도 영덕군 영덕읍 창포리 911,36.408875,129.428784,99,30,Y,054-730-6521,,창포지구,,,,미적용,,130,35,,,,영덕군,054-730-6521,2019-06-30
창포초등학교,지진해일대피소,지진해일 긴급대피장소,운동장,경상북도 영덕군 영덕읍 창포리 550,경상북도 영덕군 영덕읍 창포리 550,36.4095941227,129.427915,1419,430,Y,054-730-6521,,창포지구,,,,미적용,,100,25,,,,영덕군,054-730-6521,2019-06-30
제당옆골목,지진해일대피소,지진해일 긴급대피장소,공터,경상북도 영덕군 영덕읍 창포리 572,경상북도 영덕군 영덕읍 창포리 572,36.411318,129.428646,99,30,Y,054-730-6521,,창포지구,,,,미적용,,90,24,,,,영덕군,054-730-6521,2019-06-30
창포일반(강유복 집뒤),지진해일대피소,지진해일 긴급대피장소,공터,경상북도 영덕군 영덕읍 창포리 591,경상북도 영덕군 영덕읍 창포리 591,36.4118894237,129.42923487,99,30,Y,054-730-6521,,창포지구,,,,미적용,,150,29,,,,영덕군,054-730-6521,2019-06-30
창호민박뒤,지진해일대피소,지진해일 긴급대피장소,공터,경상북도 영덕군 영덕읍 대탄리 산13-1,경상북도 영덕군 영덕읍 대탄리 산13-1,36.433843,129.432269,429,130,Y,054-730-6521,,대탄지구,,,,미적용,,260,49,,,,영덕군,054-730-6521,2019-06-30
오보보건소뒤,지진해일대피소,지진해일 긴급대피장소,공터,경상북도 영덕군 영덕읍 오보리 142,경상북도 영덕군 영덕읍 오보리 142,36.441301,129.430228,264,80,Y,054-730-6521,,오보지구,,,,미적용,,280,30,,,,영덕군,054-730-6521,2019-06-30
오보교회뒤,지진해일대피소,지진해일 긴급대피장소,공터,경상북도 영덕군 영덕읍 오보리 17-4,경상북도 영덕군 영덕읍 오보리 17-4,36.442387,129.432117,165,50,Y,054-730-6521,,오보지구,,,,미적용,,170,47,,,,영덕군,054-730-6521,2019-06-30
선창횟집 뒤,지진해일대피소,지진해일 긴급대피장소,공터,경상북도 영덕군 영덕읍 노물리 174-4,경상북도 영덕군 영덕읍 노물리 174-4,36.446269,129.431150,66,20,Y,054-730-6521,,노물지구,,,,미적용,,320,45,,,,영덕군,054-730-6521,2019-06-30
경노회관뒤 골목,지진해일대피소,지진해일 긴급대피장소,공터,경상북도 영덕군 영덕읍 노물리 45,경상북도 영덕군 영덕읍 노물리 45,36.446431,129.434423884,82.5,25,Y,054-730-6521,,노물지구,,,,미적용,,140,48,,,,영덕군,054-730-6521,2019-06-30
해녀횟집뒤 골목,지진해일대피소,지진해일 긴급대피장소,공터,경상북도 영덕군 영덕읍 노물리 20,경상북도 영덕군 영덕읍 노물리 20,36.446441,129.434947,82.5,25,Y,054-730-6521,,노물지구,,,,미적용,,160,46,,,,영덕군,054-730-6521,2019-06-30
구)보건소 맞은편,지진해일대피소,지진해일 긴급대피장소,공터,경상북도 영덕군 영덕읍 노물리 170,경상북도 영덕군 영덕읍 노물리 170,36.446812,129.431069,115.5,35,Y,054-730-6521,,노물지구,,,,미적용,,370,42,,,,영덕군,054-730-6521,2019-06-30
지미슈퍼뒤 공터,지진해일대피소,지진해일 긴급대피장소,공터,경상북도 영덕군 영덕읍 노물리 70-6,경상북도 영덕군 영덕읍 노물리 70-6,36.447001,129.432930,66,20,Y,054-730-6521,,노물지구,,,,미적용,,250,35,,,,영덕군,054-730-6521,2019-06-30
연국사입구,지진해일대피소,지진해일 긴급대피장소,공터,경상북도 영덕군 영덕읍 노물리 161-1,경상북도 영덕군 영덕읍 노물리 161-1,36.4478471463,129.430302608,115.5,35,Y,054-730-6521,,노물지구,,,,미적용,,430,54,,,,영덕군,054-730-6521,2019-06-30
경정석산(버스승강장),지진해일대피소,지진해일 긴급대피장소,기타,경상북도 영덕군 축산면 경정리 산26-1,경상북도 영덕군 축산면 경정리 산26-1,36.475093,129.431814,330,100,Y,054-730-6521,,경정3지구,,,,미적용,,200,35,,,,영덕군,054-730-6521,2019-06-30
경정해수욕장 뒷산,지진해일대피소,지진해일 긴급대피장소,공터,경상북도 영덕군 축산면 경정리 산60,경상북도 영덕군 축산면 경정리 산60,36.482615,129.432803,330,100,Y,054-730-6521,,경정1지구,,,,미적용,,100,25,,,,영덕군,054-730-6521,2019-06-30
경정교회 뒷산,지진해일대피소,지진해일 긴급대피장소,공터,경상북도 영덕군 축산면 경정리 산192-1,경상북도 영덕군 축산면 경정리 산192-1,36.484000,129.431000,660,200,Y,054-730-6521,,경정1지구,,,,미적용,,350,30,,,,영덕군,054-730-6521,2019-06-30
축산항초등학교 경정분교뒤 공터,지진해일대피소,지진해일 긴급대피장소,운동장,경상북도 영덕군 축산면 경정리 234,경상북도 영덕군 축산면 경정리 234,36.486086,129.433880357,660,200,Y,054-730-6521,,경정1지구,,,,미적용,,350,20,,,,영덕군,054-730-6521,2019-06-30
태흥모텔 앞 공터,지진해일대피소,지진해일 긴급대피장소,공터,경상북도 영덕군 축산면 경정리 24,경상북도 영덕군 축산면 경정리 24,36.493652,129.442883,825,250,Y,054-730-6521,,경정2지구,,,,미적용,,150,30,,,,영덕군,054-730-6521,2019-06-30
블루로드길,지진해일대피소,지진해일 긴급대피장소,공터,경상북도 영덕군 축산면 축산리 산113-2,경상북도 영덕군 축산면 축산리 산113-2,36.501362,129.444205,330,100,Y,054-730-6521,,축산항지구,,,,미적용,,70,40,,,,영덕군,054-730-6521,2019-06-30
죽도산,지진해일대피소,지진해일 긴급대피장소,공터,경상북도 영덕군 축산면 축산리 산106-4,경상북도 영덕군 축산면 축산리 산106-4,36.507654,129.450889,990,300,Y,054-730-6521,,축산항지구,,,,미적용,,400,40,,,,영덕군,054-730-6521,2019-06-30
축산항초교 뒷산,지진해일대피소,지진해일 긴급대피장소,공터,경상북도 영덕군 축산면 축산리 187,경상북도 영덕군 축산면 축산리 187,36.5096824855,129.442324,1320,400,Y,054-730-6521,,축산항지구,,,,미적용,,800,20,,,,영덕군,054-730-6521,2019-06-30
와우산,지진해일대피소,지진해일 긴급대피장소,공터,경상북도 영덕군 축산면 축산리 산20-2,경상북도 영덕군 축산면 축산리 산20-2,36.5096160383,129.447308589,990,300,Y,054-730-6521,,축산항지구,,,,미적용,,100,30,,,,영덕군,054-730-6521,2019-06-30
목너머,지진해일대피소,지진해일 긴급대피장소,공터,경상북도 영덕군 축산면 축산리 산8-5,경상북도 영덕군 축산면 축산리 산8-5,36.512057,129.443537,1320,400,Y,054-730-6521,,축산항지구,,,,미적용,,70,15,,,,영덕군,054-730-6521,2019-06-30
마을뒤야산,지진해일대피소,지진해일 긴급대피장소,공터,경상북도 영덕군 영해면 사진리 산83,경상북도 영덕군 영해면 사진리 산83,36.520948,129.441682,330,100,Y,054-730-6521,,사진3지구,,,,미적용,,150,20,,,,영덕군,054-730-6521,2019-06-30
마을뒤 공터,지진해일대피소,지진해일 긴급대피장소,공터,경상북도 영덕군 영해면 사진리 310-4,경상북도 영덕군 영해면 사진리 310-4,36.5311437661,129.439069814,495,150,Y,054-730-6521,,사진2지구,,,,미적용,,150,40,,,,영덕군,054-730-6521,2019-06-30
마을뒤야산,지진해일대피소,지진해일 긴급대피장소,공터,경상북도 영덕군 영해면 사진리 산83,경상북도 영덕군 영해면 사진리 산83,36.538246,129.436810,330,100,Y,054-730-6521,,사진1지구,,,,미적용,,250,35,,,,영덕군,054-730-6521,2019-06-30
마을뒤 야산,지진해일대피소,지진해일 긴급대피장소,공터,경상북도 영덕군 영해면 대진리 401-16,경상북도 영덕군 영해면 대진리 401-16,36.554646,129.436472,660,200,Y,054-730-6521,,대진2지구,,,,미적용,,150,20,,,,영덕군,054-730-6521,2019-06-30
대진1리 마을뒤 야산,지진해일대피소,지진해일 긴급대피장소,공터,경상북도 영덕군 영해면 대진리 401-16,경상북도 영덕군 영해면 대진리 401-16,36.556292,129.428568,495,150,Y,054-730-6521,,대진1지구,,,,미적용,,230,30,,,,영덕군,054-730-6521,2019-06-30
마을뒤 야산,지진해일대피소,지진해일 긴급대피장소,공터,경상북도 영덕군 영해면 대진리 401-16,경상북도 영덕군 영해면 대진리 401-16,36.561831,129.429326,495,150,Y,054-730-6521,,대진3지구,,,,미적용,,70,20,,,,영덕군,054-730-6521,2019-06-30
영덕경찰수련원,지진해일대피소,지진해일 긴급대피장소,공터,경상북도 영덕군 병곡면 덕천리 190-42,경상북도 영덕군 병곡면 덕천리 190-42,36.568802,129.416943,990,300,Y,054-730-6521,,덕천지구,,,,미적용,,500,20,,,,영덕군,054-730-6521,2019-06-30
7번국도변,지진해일대피소,지진해일 긴급대피장소,공터,경상북도 영덕군 병곡면 원황리 619-3,경상북도 영덕군 병곡면 원황리 619-3,36.576542,129.399714,990,300,Y,054-730-6521,,백석2지구,,,,미적용,,300,59,,,,영덕군,054-730-6521,2019-06-30
학생해양수련원,지진해일대피소,지진해일 긴급대피장소,공터,경상북도 영덕군 병곡면 거무역리 5-41,경상북도 영덕군 병곡면 거무역리 5-41,36.578637,129.412499695,1650,500,Y,054-730-6521,,거무역지구,,,,미적용,,100,21,,,,영덕군,054-730-6521,2019-06-30
영리 야산,지진해일대피소,지진해일 긴급대피장소,공터,경상북도 영덕군 병곡면 영리 296,경상북도 영덕군 병곡면 영리 296,36.594331,129.402308,990,300,Y,054-730-6521,,영4지구,,,,미적용,,600,49,,,,영덕군,054-730-6521,2019-06-30
마을 뒤 도로(국도변 철암산입구),지진해일대피소,지진해일 긴급대피장소,공터,경상북도 영덕군 병곡면 병곡리 468,경상북도 영덕군 병곡면 병곡리 468,36.603526,129.405981,990,300,Y,054-730-6521,,병곡지구,,,,미적용,,500,52,,,,영덕군,054-730-6521,2019-06-30
바다향기펜션,지진해일대피소,지진해일 긴급대피장소,공터,경상북도 영덕군 병곡면 병곡리 24,경상북도 영덕군 병곡면 병곡리 24,36.603701,129.414894409,660,200,Y,054-730-6521,,병곡지구,,,,미적용,,300,49,,,,영덕군,054-730-6521,2019-06-30
병곡휴게소,지진해일대피소,지진해일 긴급대피장소,공터,경상북도 영덕군 병곡면 병곡리 331-9,경상북도 영덕군 병곡면 병곡리 331-9,36.606215,129.413252,2640,800,Y,054-730-6521,,병곡지구,,,,미적용,,600,41,,,,영덕군,054-730-6521,2019-06-30
철암산,지진해일대피소,지진해일 긴급대피장소,공터,경상북도 영덕군 병곡면 백석리 269-2,경상북도 영덕군 병곡면 백석리 269-2,36.619014,129.409739,990,300,Y,054-730-6521,,백석1지구,,,,미적용,,400,56,,,,영덕군,054-730-6521,2019-06-30
철암산,지진해일대피소,지진해일 긴급대피장소,공터,경상북도 영덕군 병곡면 백석리 269-2,경상북도 영덕군 병곡면 백석리 269-2,36.620907,129.409293,990,300,Y,054-730-6521,,백석1지구,,,,미적용,,400,56,,,,영덕군,054-730-6521,2019-06-30
동해안휴게소,지진해일대피소,지진해일 긴급대피장소,공터,경상북도 영덕군 병곡면 백석리 706,경상북도 영덕군 병곡면 백석리 706,36.623396368,129.411663727,990,300,Y,054-730-6521,,백석2지구,,,,미적용,,300,59,,,,영덕군,054-730-6521,2019-06-30
7번국도변,지진해일대피소,지진해일 긴급대피장소,공터,경상북도 영덕군 병곡면 원황리 619-3,경상북도 영덕군 병곡면 원황리 619-3,36.624989,129.411315,330,100,Y,054-730-6521,,거무역지구,,,,미적용,,480,24,,,,영덕군,054-730-6521,2019-06-30
칠보산도로변,지진해일대피소,지진해일 긴급대피장소,공터,경상북도 영덕군 병곡면 금곡리 산119-4,경상북도 영덕군 병곡면 금곡리 산119-4,36.638611,129.410600,660,200,Y,054-730-6521,,금곡1지구,,,,미적용,,300,79,,,,영덕군,054-730-6521,2019-06-30
마을뒷산,지진해일대피소,지진해일 긴급대피장소,공터,경상북도 영덕군 남정면 남정면 구계리,경상북도 영덕군 남정면 남정면 구계리,36.641896,129.412771,330,100,Y,054-730-6521,,금진1지구,,,,미적용,,50,23,,,,영덕군,054-730-6521,2019-06-30
구국도변 공터,지진해일대피소,지진해일 긴급대피장소,공터,경상북도 영덕군 병곡면 금곡리 13-1,경상북도 영덕군 병곡면 금곡리 13-1,36.642051,129.420621,264,80,Y,054-730-6521,,금곡2지구,,,,미적용,,300,35,,,,영덕군,054-730-6521,2019-06-30
금곡1서낭당,지진해일대피소,지진해일 긴급대피장소,공터,경상북도 영덕군 병곡면 금곡리 332-1,경상북도 영덕군 병곡면 금곡리 332-1,36.642286,129.408859,495,150,Y,054-730-6521,,금곡1지구,,,,미적용,,800,28,,,,영덕군,054-730-6521,2019-06-30
구국도변 공터,지진해일대피소,지진해일 긴급대피장소,공터,경상북도 영덕군 병곡면 금곡리 13-1,경상북도 영덕군 병곡면 금곡리 13-1,36.643406,129.422014,231,70,Y,054-730-6521,,금곡2지구,,,,미적용,,300,28,,,,영덕군,054-730-6521,2019-06-30
구7번국도,지진해일대피소,지진해일 긴급대피장소,기타,경상북도 울진군 후포면 금음리 394-2,경상북도 울진군 후포면 금음리 394-2,36.645190,129.422408,1650,500,Y,054-789-4900,,금음지구3,,,,미적용,,200,20,,,,울진군,054-789-4900,2019-06-30
국도옆산마루측구,지진해일대피소,지진해일 긴급대피장소,공터,경상북도 울진군 경상북도 울진군 후포면 금음리 259,경상북도 울진군 경상북도 울진군 후포면 금음리 259,36.660888,129.431039,990,300,Y,054-789-4900,,금음지구2,,,,미적용,,80,25,,,,울진군,054-789-4900,2019-06-30
반소골길,지진해일대피소,지진해일 긴급대피장소,공터,경상북도 울진군 후포면 금음리 산295,경상북도 울진군 후포면 금음리 산295,36.665528,129.398723,990,300,Y,054-789-4900,,금음지구2,,,,미적용,,100,20,,,,울진군,054-789-4900,2019-06-30
코리아모텔뒷산,지진해일대피소,지진해일 긴급대피장소,공터,경상북도 울진군 후포면 금음리 산155,경상북도 울진군 후포면 금음리 산155,36.6655803821,129.426569,1650,500,Y,054-789-4900,,금음지구2,,,,미적용,,250,24,,,,울진군,054-789-4900,2019-06-30
마을뒤공터,지진해일대피소,지진해일 긴급대피장소,공터,경상북도 울진군 경상북도 울진군 후포면 금음리 114-6,경상북도 울진군 경상북도 울진군 후포면 금음리 114-6,36.667240,129.429487,660,200,Y,054-789-4900,,금음지구1,,,,미적용,,160,15,,,,울진군,054-789-4900,2019-06-30
어업무선국송신소,지진해일대피소,지진해일 긴급대피장소,공터,경상북도 울진군 후포면 동해대로 307-18,경상북도 울진군 후포면 동해대로 307-18,36.6692848433,129.434671,990,300,Y,054-789-4900,,금음지구1,,,,미적용,,100,24,,,,울진군,054-789-4900,2019-06-30
구 7번국도,지진해일대피소,지진해일 긴급대피장소,기타,경상북도 울진군 경상북도 울진군 후포면 금음리 385,경상북도 울진군 경상북도 울진군 후포면 금음리 385,36.673766,129.436249,1650,500,Y,054-789-4900,,금음지구3,,,,미적용,,300,40,,,,울진군,054-789-4900,2019-06-30
7번국도 옆 공장부지,지진해일대피소,지진해일 긴급대피장소,공터,경상북도 울진군 경상북도 울진군 후포면 금음리 산1,경상북도 울진군 경상북도 울진군 후포면 금음리 산1,36.674975,129.440335,1650,500,Y,054-789-4900,,삼율지구3,,,,미적용,,200,30,,,,울진군,054-789-4900,2019-06-30
보성장여관,지진해일대피소,지진해일 긴급대피장소,기타,경상북도 울진군 후포면 삼율리 246-2,경상북도 울진군 후포면 삼율리 246-2,36.6763119621,129.440494,660,200,Y,054-789-4900,,삼율지구3,,,,미적용,,250,15,,,,울진군,054-789-4900,2019-06-30
삼영아파트옥상,지진해일대피소,지진해일 긴급대피장소,기타,경상북도 울진군 후포면 삼율리 280,경상북도 울진군 후포면 삼율리 280,36.6771898788,129.442122566,1320,400,Y,054-789-4900,,삼율지구2,,,,미적용,,150,20,,,,울진군,054-789-4900,2019-06-30
남울진청년회의소,지진해일대피소,지진해일 긴급대피장소,공터,경상북도 울진군 후포면  정실2길 104,경상북도 울진군 후포면  정실2길 104,36.6776167481,129.435711689,990,300,Y,054-789-4900,,삼율지구3,,,,미적용,,350,20,,,,울진군,054-789-4900,2019-06-30
공영하이츠옥상,지진해일대피소,지진해일 긴급대피장소,기타,경상북도 울진군 후포면 삼율리 258,경상북도 울진군 후포면 삼율리 258,36.6772143142,129.439349598,1650,500,Y,054-789-4900,,삼율지구3,,,,미적용,,300,35,,,,울진군,054-789-4900,2019-06-30
마을뒷산고지대,지진해일대피소,지진해일 긴급대피장소,공터,경상북도 울진군 경상북도 울진군 후포면 후포리 산96-17,경상북도 울진군 경상북도 울진군 후포면 후포리 산96-17,36.679380,129.441870,1320,400,Y,054-789-4900,,삼율지구2,,,,미적용,,100,20,,,,울진군,054-789-4900,2019-06-30
전망대,지진해일대피소,지진해일 긴급대피장소,공터,경상북도 울진군 후포면 후포리 산141-13,경상북도 울진군 후포면 후포리 산141-13,36.680477,129.464702,660,200,Y,054-789-4900,,후포지구2,,,,미적용,,160,21,,,,울진군,054-789-4900,2019-06-30
후포교회,지진해일대피소,지진해일 긴급대피장소,공터,경상북도 울진군 후포면 후포면 후포리 623-29,경상북도 울진군 후포면 후포면 후포리 623-29,36.680862,129.452309,990,300,Y,054-789-4900,,후포지구4,,,,미적용,,100,17,,,,울진군,054-789-4900,2019-06-30
후포초등학교,지진해일대피소,지진해일 긴급대피장소,운동장,경상북도 울진군 후포면 삼율리 322,경상북도 울진군 후포면 삼율리 322,36.6810494667,129.441419,29700,9000,Y,054-789-4900,,삼율지구1,,,,미적용,,350,18,,,,울진군,054-789-4900,2019-06-30
정우맨션옥상,지진해일대피소,지진해일 긴급대피장소,기타,경상북도 울진군 후포면 삼율리 53-1,경상북도 울진군 후포면 삼율리 53-1,36.6811614885,129.443616,990,300,Y,054-789-4900,,삼율지구2,,,,미적용,,360,17,,,,울진군,054-789-4900,2019-06-30
마을뒤고지대(주차장),지진해일대피소,지진해일 긴급대피장소,공터,경상북도 울진군 후포면 삼율리 432,경상북도 울진군 후포면 삼율리 432,36.6815668594,129.439026286,990,300,Y,054-789-4900,,금음지구1,,,,미적용,,240,20,,,,울진군,054-789-4900,2019-06-30
마을뒤고지대(주차장),지진해일대피소,지진해일 긴급대피장소,공터,경상북도 울진군 후포면 삼율리 432,경상북도 울진군 후포면 삼율리 432,36.6815668594,129.439026286,1650,500,Y,054-789-4900,,삼율지구1,,,,미적용,,220,19,,,,울진군,054-789-4900,2019-06-30
우성플러스빌옥상,지진해일대피소,지진해일 긴급대피장소,기타,경상북도 울진군 후포면 후포리 1002-6,경상북도 울진군 후포면 후포리 1002-6,36.681785,129.444831,990,300,Y,054-789-4900,,삼율지구2,,,,미적용,,120,37,,,,울진군,054-789-4900,2019-06-30
등기산주차장,지진해일대피소,지진해일 긴급대피장소,공터,경상북도 울진군 후포면 후포리 563,경상북도 울진군 후포면 후포리 563,36.681837,129.463525,2640,800,Y,054-789-4900,,후포지구2,,,,미적용,,160,25,,,,울진군,054-789-4900,2019-06-30
용마맨션옥상,지진해일대피소,지진해일 긴급대피장소,기타,경상북도 울진군 후포면 후포리 581-5,경상북도 울진군 후포면 후포리 581-5,36.6816476224,129.460817,990,300,Y,054-789-4900,,후포지구2,,,,미적용,,100,19,,,,울진군,054-789-4900,2019-06-30
선재하이츠빌라옥상,지진해일대피소,지진해일 긴급대피장소,기타,경상북도 울진군 후포면 후포리 605-6,경상북도 울진군 후포면 후포리 605-6,36.6817987597,129.454039527,660,200,Y,054-789-4900,,후포지구4,,,,미적용,,200,17,,,,울진군,054-789-4900,2019-06-30
후포등기산공원,지진해일대피소,지진해일 긴급대피장소,공터,경상북도 울진군 후포면 후포리 581,경상북도 울진군 후포면 후포리 581,36.6827342522,129.461089094,2640,800,Y,054-789-4900,,후포지구1,,,,미적용,,200,43,,,,울진군,054-789-4900,2019-06-30
후포2리마을고지대,지진해일대피소,지진해일 긴급대피장소,공터,경상북도 울진군 후포면 후포리 361-1,경상북도 울진군 후포면 후포리 361-1,36.6835577548,129.459777584,330,100,Y,054-789-4900,,후포지구2,,,,미적용,,280,25,,,,울진군,054-789-4900,2019-06-30
후포2리뒷산,지진해일대피소,지진해일 긴급대피장소,공터,경상북도 울진군 후포면 후포리 289-78,경상북도 울진군 후포면 후포리 289-78,36.6840780069,129.457216,1320,400,Y,054-789-4900,,후포지구3,,,,미적용,,200,35,,,,울진군,054-789-4900,2019-06-30
등대산고지대,지진해일대피소,지진해일 긴급대피장소,공터,경상북도 울진군 후포면 후포리 산140,경상북도 울진군 후포면 후포리 산140,36.684447243,129.462942322,1320,400,Y,054-789-4900,,후포지구1,,,,미적용,,200,25,,,,울진군,054-789-4900,2019-06-30
후포1리마을고지대,지진해일대피소,지진해일 긴급대피장소,공터,경상북도 울진군 후포면 후포리 447-1,경상북도 울진군 후포면 후포리 447-1,36.684868,129.460012,990,300,Y,054-789-4900,,후포지구1,,,,미적용,,100,20,,,,울진군,054-789-4900,2019-06-30
후포동부초등학교,지진해일대피소,지진해일 긴급대피장소,운동장,경상북도 울진군 후포면 후포리 78,경상북도 울진군 후포면 후포리 78,36.687035,129.461851,1650,500,Y,054-789-4900,,후포지구1,,,,미적용,,130,20,,,,울진군,054-789-4900,2019-06-30
마을뒷산고지대,지진해일대피소,지진해일 긴급대피장소,공터,경상북도 울진군 경상북도 울진군 후포면 후포리 37,경상북도 울진군 경상북도 울진군 후포면 후포리 37,36.688566,129.464291,660,200,Y,054-789-4900,,후포지구1,,,,미적용,,120,20,,,,울진군,054-789-4900,2019-06-30
마을뒷산 고지대,지진해일대피소,지진해일 긴급대피장소,공터,경상북도 울진군 경상북도 울진군 후포면 후포리 37,경상북도 울진군 경상북도 울진군 후포면 후포리 37,36.689227,129.465457,660,200,Y,054-789-4900,,후포지구1,,,,미적용,,100,19,,,,울진군,054-789-4900,2019-06-30
마을뒷산고지대,지진해일대피소,지진해일 긴급대피장소,공터,경상북도 울진군 경상북도 울진군 평해읍 거일리 산159,경상북도 울진군 경상북도 울진군 평해읍 거일리 산159,36.699183,129.474906,158.4,48,Y,054-789-4100,,거일지구1,,,,미적용,,150,25,,,,울진군,054-789-4100,2019-06-30
거일평화교회,지진해일대피소,지진해일 긴급대피장소,공터,경상북도 울진군 평해읍 거일리 156,경상북도 울진군 평해읍 거일리 156,36.7051592394,129.473067,158.4,48,Y,054-789-4100,,거일지구2,,,,미적용,,100,27,,,,울진군,054-789-4100,2019-06-30
마을뒷산고지대,지진해일대피소,지진해일 긴급대피장소,공터,경상북도 울진군 평해읍 거일리 산153-1,경상북도 울진군 평해읍 거일리 산153-1,36.701041,129.474662,158.4,48,Y,054-789-4100,,거일지구1,,,,미적용,,100,27,,,,울진군,054-789-4100,2019-06-30
마을뒷산고지대,지진해일대피소,지진해일 긴급대피장소,공터,경상북도 울진군 평해읍 거일리 192,경상북도 울진군 평해읍 거일리 192,36.703751,129.473863,158.4,48,Y,054-789-4100,,거일지구2,,,,미적용,,250,27,,,,울진군,054-789-4100,2019-06-30
파도향기펜션,지진해일대피소,지진해일 긴급대피장소,공터,경상북도 울진군 평해읍 거일리 61,경상북도 울진군 평해읍 거일리 61,36.706891,129.468369,158.4,48,Y,054-789-4100,,거일지구1,,,,미적용,,230,20,,,,울진군,054-789-4100,2019-06-30
평해연수원뒷산,지진해일대피소,지진해일 긴급대피장소,공터,경상북도 울진군 평해읍 거일리 산63,경상북도 울진군 평해읍 거일리 산63,36.708242,129.472600,155.1,47,Y,054-789-4100,,거일지구1,,,,미적용,,120,25,,,,울진군,054-789-4100,2019-06-30
마을뒷산고지대,지진해일대피소,지진해일 긴급대피장소,공터,경상북도 울진군 평해읍 거일리 83-1,경상북도 울진군 평해읍 거일리 83-1,36.708334,129.472922,158.4,48,Y,054-789-4100,,거일지구1,,,,미적용,,150,25,,,,울진군,054-789-4100,2019-06-30
마을뒷산고지대,지진해일대피소,지진해일 긴급대피장소,공터,경상북도 울진군 경상북도 울진군 평해읍 거일리 산29,경상북도 울진군 경상북도 울진군 평해읍 거일리 산29,36.714272,129.471135,155.1,47,Y,054-789-4100,,거일지구1,,,,미적용,,260,25,,,,울진군,054-789-4100,2019-06-30
직산2리 282번지 밭 일대,지진해일대피소,지진해일 긴급대피장소,공터,경상북도 울진군 경상북도 울진군 평해읍 직산리 283,경상북도 울진군 경상북도 울진군 평해읍 직산리 283,36.719718,129.470291,231,70,Y,054-789-4100,,직산지구2,,,,미적용,,250,22,,,,울진군,054-789-4100,2019-06-30
직산보건소뒷산,지진해일대피소,지진해일 긴급대피장소,공터,경상북도 울진군 경상북도 울진군 평해읍 직산리 317,경상북도 울진군 경상북도 울진군 평해읍 직산리 317,36.721387,129.469521,231,70,Y,054-789-4100,,직산지구2,,,,미적용,,180,18,,,,울진군,054-789-4100,2019-06-30
직산2리마을회관뒷산,지진해일대피소,지진해일 긴급대피장소,공터,경상북도 울진군 평해읍 직산리 산42,경상북도 울진군 평해읍 직산리 산42,36.723472,129.470617,231,70,Y,054-789-4100,,직산지구2,,,,미적용,,60,18,,,,울진군,054-789-4100,2019-06-30
해뜨는 바다펜션 옆 고지대,지진해일대피소,지진해일 긴급대피장소,공터,경상북도 울진군 경상북도 울진군 평해읍 직산리 13-3,경상북도 울진군 경상북도 울진군 평해읍 직산리 13-3,36.732237,129.475067,231,70,Y,054-789-4100,,직산지구1,,,,미적용,,180,18,,,,울진군,054-789-4100,2019-06-30
직산1리 마을회관 뒤 고지대,지진해일대피소,지진해일 긴급대피장소,공터,경상북도 울진군 경상북도 울진군 평해읍 직산리 61-1,경상북도 울진군 경상북도 울진군 평해읍 직산리 61-1,36.732433,129.474533,231,70,Y,054-789-4100,,직산지구1,,,,미적용,,150,15,,,,울진군,054-789-4100,2019-06-30
해뜨는 바다펜션 뒷산,지진해일대피소,지진해일 긴급대피장소,공터,경상북도 울진군 경상북도 울진군 평해읍 직산리 20-1,경상북도 울진군 경상북도 울진군 평해읍 직산리 20-1,36.732957,129.475082,277.2,84,Y,054-789-4100,,직산지구1,,,,미적용,,240,20,,,,울진군,054-789-4100,2019-06-30
월송초등학교,지진해일대피소,지진해일 긴급대피장소,운동장,경상북도 울진군 평해읍 월송리 1007,경상북도 울진군 평해읍 월송리 1007,36.7360326921,129.458995,1280.4,388,Y,054-789-4100,,월송지구1,,,,미적용,,600,15,,,,울진군,054-789-4100,2019-06-30
월송2리마을회관뒷산,지진해일대피소,지진해일 긴급대피장소,공터,경상북도 울진군 평해읍 월송리 산22-6,경상북도 울진군 평해읍 월송리 산22-6,36.739277,129.459518,660,200,Y,054-789-4100,,월송지구2,,,,미적용,,600,25,,,,울진군,054-789-4100,2019-06-30
마을뒷산고지대,지진해일대피소,지진해일 긴급대피장소,공터,경상북도 울진군 평해읍 월송리 산18,경상북도 울진군 평해읍 월송리 산18,36.741326,129.458223,660,200,Y,054-789-4100,,월송지구3,,,,미적용,,600,27,,,,울진군,054-789-4100,2019-06-30
구산비치모텔뒤공터,지진해일대피소,지진해일 긴급대피장소,공터,경상북도 울진군 기성면 구산리 391,경상북도 울진군 기성면 구산리 391,36.7521159104,129.464745,990,300,Y,054-789-6153,,구산지구2,,,,미적용,,360,20,,,,울진군,054-789-6153,2019-06-30
동해월송정옥상,지진해일대피소,지진해일 긴급대피장소,기타,경상북도 울진군 기성면 구산리 418-1,경상북도 울진군 기성면 구산리 418-1,36.755058,129.464247,990,300,Y,054-789-6153,,구산지구2,,,,미적용,,280,22,,,,울진군,054-789-6153,2019-06-30
구산침례교회뒷산,지진해일대피소,지진해일 긴급대피장소,공터,경상북도 울진군 기성면 구산리 305,경상북도 울진군 기성면 구산리 305,36.758401,129.465736,990,300,Y,054-789-6153,,구산지구1,,,,미적용,,200,21,,,,울진군,054-789-6153,2019-06-30
구산중앙교회옆,지진해일대피소,지진해일 긴급대피장소,공터,경상북도 울진군 기성면 구산리 177,경상북도 울진군 기성면 구산리 177,36.761187,129.466555,660,200,Y,054-789-6153,,구산지구1,,,,미적용,,240,22,,,,울진군,054-789-6153,2019-06-30
태평양횟집뒷산,지진해일대피소,지진해일 긴급대피장소,공터,경상북도 울진군 기성면 구산리 48-2,경상북도 울진군 기성면 구산리 48-2,36.762684,129.471343,495,150,Y,054-789-6153,,구산지구1,,,,미적용,,150,22,,,,울진군,054-789-6153,2019-06-30
마을뒤고지대밭,지진해일대피소,지진해일 긴급대피장소,공터,경상북도 울진군 기성면 구산리 83,경상북도 울진군 기성면 구산리 83,36.763366,129.473968,990,300,Y,054-789-6153,,구산지구1,,,,미적용,,240,19,,,,울진군,054-789-6153,2019-06-30
봉산2리개인주택,지진해일대피소,지진해일 긴급대피장소,기타,경상북도 울진군 기성면 봉산리 72,경상북도 울진군 기성면 봉산리 72,36.7692067034,129.475752586,1650,500,Y,054-789-6153,,봉산지구2,,,,미적용,,130,15,,,,울진군,054-789-6153,2019-06-30
봉산2리마을회관뒤밭,지진해일대피소,지진해일 긴급대피장소,공터,경상북도 울진군 기성면 봉산리 115-2,경상북도 울진군 기성면 봉산리 115-2,36.770557,129.474460,660,200,Y,054-789-6153,,봉산지구2,,,,미적용,,120,15,,,,울진군,054-789-6153,2019-06-30
마을뒷산묘지,지진해일대피소,지진해일 긴급대피장소,공터,경상북도 울진군 기성면 봉산리 산60,경상북도 울진군 기성면 봉산리 산60,36.771752,129.474119,990,300,Y,054-789-6153,,봉산지구2,,,,미적용,,60,17,,,,울진군,054-789-6153,2019-06-30
봉산리 150-1 일대 밭,지진해일대피소,지진해일 긴급대피장소,공터,경상북도 울진군 기성면 봉산리 150-1,경상북도 울진군 기성면 봉산리 150-1,36.774914,129.471239,330,100,Y,054-789-6153,,봉산지구1,,,,미적용,,100,15,,,,울진군,054-789-6153,2019-06-30
봉산1리마을뒷산,지진해일대피소,지진해일 긴급대피장소,공터,경상북도 울진군 기성면 봉산리 309,경상북도 울진군 기성면 봉산리 309,36.780361,129.468673,330,100,Y,054-789-6153,,봉산지구1,,,,미적용,,100,26,,,,울진군,054-789-6153,2019-06-30
봉산1리개인주택,지진해일대피소,지진해일 긴급대피장소,기타,경상북도 울진군 기성면 봉산리 322,경상북도 울진군 기성면 봉산리 322,36.781524,129.465934,990,300,Y,054-789-6153,,봉산지구1,,,,미적용,,250,23,,,,울진군,054-789-6153,2019-06-30
봉산리 490번지 인근도로,지진해일대피소,지진해일 긴급대피장소,기타,경상북도 울진군 기성면 봉산리 490,경상북도 울진군 기성면 봉산리 490,36.788254,129.459793,3300,1000,Y,054-789-6153,,봉산지구1,,,,미적용,,500,24,,,,울진군,054-789-6153,2019-06-30
기성리 135번지 일대 밭,지진해일대피소,지진해일 긴급대피장소,공터,경상북도 울진군 기성 척산리 135,경상북도 울진군 기성 척산리 135,36.796615,129.449056,330,100,Y,054-789-6153,,기성지구,,,,미적용,,100,15,,,,울진군,054-789-6153,2019-06-30
기성초등학교,지진해일대피소,지진해일 긴급대피장소,운동장,경상북도 울진군 기성면 기성리 194,경상북도 울진군 기성면 기성리 194,36.8011899781,129.458110119,1650,500,Y,054-789-6153,,기성지구,,,,미적용,,250,17,,,,울진군,054-789-6153,2019-06-30
기성리 321번지 일대 밭,지진해일대피소,지진해일 긴급대피장소,공터,경상북도 울진군 기성 척산리 321,경상북도 울진군 기성 척산리 321,36.801116,129.451333,330,100,Y,054-789-6153,,기성지구,,,,미적용,,250,20,,,,울진군,054-789-6153,2019-06-30
비행훈련원기숙사,지진해일대피소,지진해일 긴급대피장소,기타,경상북도 울진군 기성면 기성리 410,경상북도 울진군 기성면 기성리 410,36.802330,129.450082,3300,1000,Y,054-789-6153,,기성지구,,,,미적용,,550,40,,,,울진군,054-789-6153,2019-06-30
기성리 451번지 옆 도로,지진해일대피소,지진해일 긴급대피장소,기타,경상북도 울진군 기성 기성리 451번지,경상북도 울진군 기성 기성리 451번지,36.803793,129.457048,990,300,Y,054-789-6153,,기성지구,,,,미적용,,370,30,,,,울진군,054-789-6153,2019-06-30
마을뒤고지대,지진해일대피소,지진해일 긴급대피장소,공터,경상북도 울진군 기성면 사동리 169,경상북도 울진군 기성면 사동리 169,36.823227,129.446460,990,300,Y,054-789-6153,,사동지구2,,,,미적용,,90,15,,,,울진군,054-789-6153,2019-06-30
사동3리마을뒷산,지진해일대피소,지진해일 긴급대피장소,공터,경상북도 울진군 기성면 사동리 산75-1,경상북도 울진군 기성면 사동리 산75-1,36.825444,129.444455,330,100,Y,054-789-6153,,사동지구2,,,,미적용,,160,26,,,,울진군,054-789-6153,2019-06-30
사동2리마을뒷산,지진해일대피소,지진해일 긴급대피장소,공터,경상북도 울진군 기성면 사동리 275,경상북도 울진군 기성면 사동리 275,36.8284435719,129.443943184,330,100,Y,054-789-6153,,사동지구1,,,,미적용,,100,21,,,,울진군,054-789-6153,2019-06-30
마을뒤도로,지진해일대피소,지진해일 긴급대피장소,공터,경상북도 울진군 기성면 사동리 308-1,경상북도 울진군 기성면 사동리 308-1,36.8287531476,129.445535394,990,300,Y,054-789-6153,,사동지구1,,,,미적용,,100,15,,,,울진군,054-789-6153,2019-06-30
사동초등학교,지진해일대피소,지진해일 긴급대피장소,운동장,경상북도 울진군 기성면 사동리 455,경상북도 울진군 기성면 사동리 455,36.8297655527,129.437476432,1650,500,Y,054-789-6153,,사동지구1,,,,미적용,,90,15,,,,울진군,054-789-6153,2019-06-30
삼성모텔 뒤 야산,지진해일대피소,지진해일 긴급대피장소,공터,경상북도 울진군 기성면  망양로 111,경상북도 울진군 기성면  망양로 111,36.8463643636,129.429507035,660,200,Y,054-789-6153,,망양지구2,,,,미적용,,100,18,,,,울진군,054-789-6153,2019-06-30
망양정옛터,지진해일대피소,지진해일 긴급대피장소,공터,경상북도 울진군 기성면 망양리 413-4,경상북도 울진군 기성면 망양리 413-4,36.849533,129.427787,990,300,Y,054-789-6153,,망양지구2,,,,미적용,,90,19,,,,울진군,054-789-6153,2019-06-30
마을뒤고지대,지진해일대피소,지진해일 긴급대피장소,공터,경상북도 울진군 경상북도 울진군 기성면 망양리 515-1,경상북도 울진군 경상북도 울진군 기성면 망양리 515-1,36.852577,129.423151,1650,500,Y,054-789-6153,,망양지구1,,,,미적용,,300,19,,,,울진군,054-789-6153,2019-06-30
늘푸른민박,지진해일대피소,지진해일 긴급대피장소,기타,경상북도 울진군 기성면 망양리 493-2,경상북도 울진군 기성면 망양리 493-2,36.8550222959,129.425337388,660,200,Y,054-789-6153,,망양지구1,,,,미적용,,100,14,,,,울진군,054-789-6153,2019-06-30
덕신휴게소뒷산,지진해일대피소,지진해일 긴급대피장소,공터,경상북도 울진군 매화면 덕신리 산231-1,경상북도 울진군 매화면 덕신리 산231-1,36.879470,129.414272,825,250,Y,054-789-6153,,"덕신지구1,2",,,,미적용,,780,25,,,,울진군,054-789-6153,2019-06-30
덕신감리교회뒷편,지진해일대피소,지진해일 긴급대피장소,공터,경상북도 울진군 매화면 덕신리 407-2,경상북도 울진군 매화면 덕신리 407-2,36.884086,129.414481,825,250,Y,054-789-6153,,"덕신지구1,2",,,,미적용,,220,6,,,,울진군,054-789-6153,2019-06-30
덕신리마을뒷산,지진해일대피소,지진해일 긴급대피장소,공터,경상북도 울진군 매화면 덕신리 476-1,경상북도 울진군 매화면 덕신리 476-1,36.887089,129.413244,825,250,Y,054-789-6153,,"덕신지구1,2",,,,미적용,,230,11,,,,울진군,054-789-6153,2019-06-30
해양레포츠센터,지진해일대피소,지진해일 긴급대피장소,기타,경상북도 울진군 매화면  오산항길 59,경상북도 울진군 매화면  오산항길 59,36.8904665,129.4123964,330,100,Y,054-789-6153,,오산지구3,,,,미적용,,25,5,,,,울진군,054-789-6153,2019-06-30
순복음교회뒷산,지진해일대피소,지진해일 긴급대피장소,공터,경상북도 울진군 매화면 오산리 294,경상북도 울진군 매화면 오산리 294,36.892792,129.414937,495,150,Y,054-789-6153,,오산지구3,,,,미적용,,360,11,,,,울진군,054-789-6153,2019-06-30
마을뒤고지대밭,지진해일대피소,지진해일 긴급대피장소,공터,경상북도 울진군 매화면 오산리 253-2,경상북도 울진군 매화면 오산리 253-2,36.8936598277,129.416821,825,250,Y,054-789-6153,,"덕신지구1,2",,,,미적용,,670,11,,,,울진군,054-789-6153,2019-06-30
마을뒤고지대,지진해일대피소,지진해일 긴급대피장소,공터,경상북도 울진군 매화면 오산리 253-2,경상북도 울진군 매화면 오산리 253-2,36.8936598277,129.416821,660,200,Y,054-789-6153,,오산지구3,,,,미적용,,510,9,,,,울진군,054-789-6153,2019-06-30
오산항 등대,지진해일대피소,지진해일 긴급대피장소,공터,경상북도 울진군 매화면 오산리 238,경상북도 울진군 매화면 오산리 238,36.894381,129.417633,330,100,Y,054-789-6153,,오산지구2,,,,미적용,,340,43,,,,울진군,054-789-6153,2019-06-30
망양정로,지진해일대피소,지진해일 긴급대피장소,기타,경상북도 울진군 매화면 오산리 106-4,경상북도 울진군 매화면 오산리 106-4,36.897202,129.418581,330,100,Y,054-789-6153,,오산지구2,,,,미적용,,180,18,,,,울진군,054-789-6153,2019-06-30
오산3리뒷산,지진해일대피소,지진해일 긴급대피장소,공터,경상북도 울진군 매화면 오산리 산196,경상북도 울진군 매화면 오산리 산196,36.904447,129.413044,825,250,Y,054-789-6153,,오산지구1,,,,미적용,,450,11,,,,울진군,054-789-6153,2019-06-30
마을뒤고지대,지진해일대피소,지진해일 긴급대피장소,공터,경상북도 울진군 매화면 오산리 642-1,경상북도 울진군 매화면 오산리 642-1,36.909450,129.414032,1254,380,Y,054-789-6153,,오산지구1,,,,미적용,,320,14,,,,울진군,054-789-6153,2019-06-30
진복2리복지회관뒤밭,지진해일대피소,지진해일 긴급대피장소,공터,경상북도 울진군 근남면 진복리 231-2,경상북도 울진군 근남면 진복리 231-2,36.918327,129.415913,495,150,Y,054-789-4443,,진복지구2,,,,미적용,,80,9,,,,울진군,054-789-4443,2019-06-30
만영수산뒤밭,지진해일대피소,지진해일 긴급대피장소,공터,경상북도 울진군 근남면 진복리 178-1,경상북도 울진군 근남면 진복리 178-1,36.9216727493,129.418431376,330,100,Y,054-789-4443,,진복지구2,,,,미적용,,175,13,,,,울진군,054-789-4443,2019-06-30
진복리522번지일대공터,지진해일대피소,지진해일 긴급대피장소,공터,경상북도 울진군 근남면 진복리 522,경상북도 울진군 근남면 진복리 522,36.926987,129.414516,330,100,Y,054-789-4443,,진복지구1,,,,미적용,,325,19,,,,울진군,054-789-4443,2019-06-30
진복리651번지일대,지진해일대피소,지진해일 긴급대피장소,공터,경상북도 울진군 근남면 진복리 651,경상북도 울진군 근남면 진복리 651,36.929216,129.413523,990,300,Y,054-789-4443,,진복지구1,,,,미적용,,320,8,,,,울진군,054-789-4443,2019-06-30
펜션뒤밭,지진해일대피소,지진해일 긴급대피장소,공터,경상북도 울진군 근남면 진복리 699,경상북도 울진군 근남면 진복리 699,36.931646,129.414849,330,100,Y,054-789-4443,,진복지구1,,,,미적용,,200,5,,,,울진군,054-789-4443,2019-06-30
산포3리마을회관,지진해일대피소,지진해일 긴급대피장소,기타,경상북도 울진군 근남면 산포리 75-1,경상북도 울진군 근남면 산포리 75-1,36.9465173221,129.417259505,330,100,Y,054-789-4443,,산포지구5,,,,미적용,,170,7,,,,울진군,054-789-4443,2019-06-30
산포리92번지일대밭,지진해일대피소,지진해일 긴급대피장소,공터,경상북도 울진군 근남면 산포리 312,경상북도 울진군 근남면 산포리 312,36.947544,129.415308486,330,100,Y,054-789-4443,,산포지구5,,,,미적용,,250,8,,,,울진군,054-789-4443,2019-06-30
산포리313번지일대밭,지진해일대피소,지진해일 긴급대피장소,공터,경상북도 울진군 근남면 산포리 313,경상북도 울진군 근남면 산포리 313,36.947661,129.415170,330,100,Y,054-789-4443,,산포지구5,,,,미적용,,250,20,,,,울진군,054-789-4443,2019-06-30
산포리18번지일대밭,지진해일대피소,지진해일 긴급대피장소,공터,경상북도 울진군 근남면 산포리 18,경상북도 울진군 근남면 산포리 18,36.954601,129.416301,495,150,Y,054-789-4443,,산포지구4,,,,미적용,,130,17,,,,울진군,054-789-4443,2019-06-30
산포리523번지일대밭,지진해일대피소,지진해일 긴급대피장소,공터,경상북도 울진군 근남면 산포리 523,경상북도 울진군 근남면 산포리 523,36.957740,129.413565,495,150,Y,054-789-4443,,산포지구4,,,,미적용,,220,11,,,,울진군,054-789-4443,2019-06-30
노음초등학교,지진해일대피소,지진해일 긴급대피장소,운동장,경상북도 울진군 근남면 535,경상북도 울진군 근남면 535,36.958665,129.391830,990,300,Y,054-789-4443,,노음지구,,,,미적용,,2000,7,,,,울진군,054-789-4443,2019-06-30
산포리1030-4번지일대밭,지진해일대피소,지진해일 긴급대피장소,공터,경상북도 울진군 근남면 산포리 1030-4,경상북도 울진군 근남면 산포리 1030-4,36.958730,129.408709,330,100,Y,054-789-4443,,산포지구3,,,,미적용,,630,14,,,,울진군,054-789-4443,2019-06-30
경원아파트,지진해일대피소,지진해일 긴급대피장소,기타,경상북도 울진군 근남면 노음리 331-4,경상북도 울진군 근남면 노음리 331-4,36.960899,129.394335,660,200,Y,054-789-4443,,노음지구,,,,미적용,,1800,6,,,,울진군,054-789-4443,2019-06-30
방사능센터,지진해일대피소,지진해일 긴급대피장소,기타,경상북도 울진군 근남면 산포리 823-3,경상북도 울진군 근남면 산포리 823-3,36.9614955696,129.402241243,990,300,Y,054-789-4443,,산포지구3,,,,미적용,,1100,5,,,,울진군,054-789-4443,2019-06-30
산포리641-2번지도로일대,지진해일대피소,지진해일 긴급대피장소,기타,경상북도 울진군 근남면 산포리 642,경상북도 울진군 근남면 산포리 642,36.961896,129.412227,330,100,Y,054-789-4443,,"산포지구1,2",,,,미적용,,200,14,,,,울진군,054-789-4443,2019-06-30
근남문화체육센터,지진해일대피소,지진해일 긴급대피장소,기타,경상북도 울진군 근남면 노음리 326-3,경상북도 울진군 근남면 노음리 326-3,36.9639975492,129.394694894,990,300,Y,054-789-4443,,노음지구,,,,미적용,,1700,6,,,,울진군,054-789-4443,2019-06-30
해맞이공원주차장,지진해일대피소,지진해일 긴급대피장소,공터,경상북도 울진군 근남면 산포리 714,경상북도 울진군 근남면 산포리 714,36.964549,129.412294,990,300,Y,054-789-4443,,"산포지구1,2",,,,미적용,,220,21,,,,울진군,054-789-4443,2019-06-30
망양정,지진해일대피소,지진해일 긴급대피장소,공터,경상북도 울진군 근남면 산포리 716-2,경상북도 울진군 근남면 산포리 716-2,36.966585,129.412732,330,100,Y,054-789-4443,,"산포지구1,2",,,,미적용,,130,42,,,,울진군,054-789-4443,2019-06-30
수산리421번지일대,지진해일대피소,지진해일 긴급대피장소,공터,경상북도 울진군 근남면 수산리 421,경상북도 울진군 근남면 수산리 421,36.969744,129.394120921,330,100,Y,054-789-4443,,수산지구,,,,미적용,,1500,21,,,,울진군,054-789-4443,2019-06-30
수산리483-1번지일대,지진해일대피소,지진해일 긴급대피장소,공터,경상북도 울진군 근남면 수산리 483-1,경상북도 울진군 근남면 수산리 483-1,36.9716589558,129.397837,264,80,Y,054-789-4443,,수산지구,,,,미적용,,1200,12,,,,울진군,054-789-4443,2019-06-30
수산리493번지공터,지진해일대피소,지진해일 긴급대피장소,공터,경상북도 울진군 근남면 수산리 493,경상북도 울진군 근남면 수산리 493,36.973011,129.397109,990,300,Y,054-789-4443,,수산지구,,,,미적용,,1200,10,,,,울진군,054-789-4443,2019-06-30
읍남리102-1번지마을뒤언덕,지진해일대피소,지진해일 긴급대피장소,공터,경상북도 울진군 울진읍 읍남리 102-1,경상북도 울진군 울진읍 읍남리 102-1,36.980846,129.405716,330,100,Y,054-789-6153,,읍남지구 1,,,,미적용,,340,9,,,,울진군,054-789-6153,2019-06-30
읍남리145번지일대밭,지진해일대피소,지진해일 긴급대피장소,공터,경상북도 울진군 울진읍 읍남리 152-1,경상북도 울진군 울진읍 읍남리 152-1,36.985813,129.408393,330,100,Y,054-789-6153,,읍남지구 2,,,,미적용,,210,23,,,,울진군,054-789-6153,2019-06-30
연지1리마을회관,지진해일대피소,지진해일 긴급대피장소,기타,경상북도 울진군 울진읍 연지리 203-6,경상북도 울진군 울진읍 연지리 203-6,36.991508,129.415332,660,200,Y,054-789-6153,,"연지지구 2, 3",,,,미적용,,40,15,,,,울진군,054-789-6153,2019-06-30
대동빌라,지진해일대피소,지진해일 긴급대피장소,기타,경상북도 울진군 울진읍 연지리 138-1,경상북도 울진군 울진읍 연지리 138-1,36.991621,129.414352985,594,180,Y,054-789-6153,,"연지지구 2, 3",,,,미적용,,60,25,,,,울진군,054-789-6153,2019-06-30
연지리406-1번지일대,지진해일대피소,지진해일 긴급대피장소,공터,경상북도 울진군 울진읍 연지리 401-10,경상북도 울진군 울진읍 연지리 401-10,37.002240,129.409089,330,100,Y,054-789-6153,,연지지구 1,,,,미적용,,550,22,,,,울진군,054-789-6153,2019-06-30
연지리495-1번지도로일대,지진해일대피소,지진해일 긴급대피장소,기타,경상북도 울진군 울진읍 연지리 495-1,경상북도 울진군 울진읍 연지리 495-1,37.005024,129.416483,990,300,Y,054-789-6153,,연지지구 1,,,,미적용,,240,26,,,,울진군,054-789-6153,2019-06-30
동회관뒷편통로박스,지진해일대피소,지진해일 긴급대피장소,공터,경상북도 울진군 울진읍 온양리 224-27,경상북도 울진군 울진읍 온양리 224-27,37.018647,129.405421,165,50,Y,054-789-6153,,온양지구 2,,,,미적용,,190,15,,,,울진군,054-789-6153,2019-06-30
교원사택,지진해일대피소,지진해일 긴급대피장소,공터,경상북도 울진군 울진읍 온양리 192,경상북도 울진군 울진읍 온양리 192,37.0249317239,129.408943788,1650,500,Y,054-789-6153,,온양지구 1,,,,미적용,,100,5,,,,울진군,054-789-6153,2019-06-30
온양리175번지일대,지진해일대피소,지진해일 긴급대피장소,공터,경상북도 울진군 울진읍 온양리 175,경상북도 울진군 울진읍 온양리 175,37.025328,129.406909,330,100,Y,054-789-6153,,온양지구 1,,,,미적용,,220,17,,,,울진군,054-789-6153,2019-06-30
온양2리마을회관뒷산,지진해일대피소,지진해일 긴급대피장소,공터,경상북도 울진군 울진읍 온양리 127-2,경상북도 울진군 울진읍 온양리 127-2,37.027622,129.407676,330,100,Y,054-789-6153,,온양지구 1,,,,미적용,,130,25,,,,울진군,054-789-6153,2019-06-30
모텔아리아,지진해일대피소,지진해일 긴급대피장소,공터,경상북도 울진군 울진읍 온양리 127-2,경상북도 울진군 울진읍 온양리 127-2,37.027622,129.407676,990,300,Y,054-789-6153,,온양지구 2,,,,미적용,,320,22,,,,울진군,054-789-6153,2019-06-30
봉평1리마을회관,지진해일대피소,지진해일 긴급대피장소,기타,경상북도 울진군 죽변면 봉평리 292-11,경상북도 울진군 죽변면 봉평리 292-11,37.0342786569,129.413392277,330,100,Y,054-789-6153,,봉평지구2,,,,미적용,,100,13,,,,울진군,054-789-6153,2019-06-30
죽변비취모텔뒷편,지진해일대피소,지진해일 긴급대피장소,공터,경상북도 울진군 죽변면 봉평리 200,경상북도 울진군 죽변면 봉평리 200,37.0374435327,129.41333967,330,100,Y,054-789-6153,,봉평지구2,,,,미적용,,560,13,,,,울진군,054-789-6153,2019-06-30
이안빌라뒷편,지진해일대피소,지진해일 긴급대피장소,공터,경상북도 울진군 죽변면 봉평리 산 76-1,경상북도 울진군 죽변면 봉평리 산 76-1,37.042692,129.412348,330,100,Y,054-789-6153,,봉평지구1,,,,미적용,,170,16,,,,울진군,054-789-6153,2019-06-30
봉평신라비전시관옆,지진해일대피소,지진해일 긴급대피장소,공터,경상북도 울진군 죽변면 봉평리 산 71-3,경상북도 울진군 죽변면 봉평리 산 71-3,37.043939,129.407335,330,100,Y,054-789-6153,,봉평지구1,,,,미적용,,560,17,,,,울진군,054-789-6153,2019-06-30
골마야산밭,지진해일대피소,지진해일 긴급대피장소,공터,경상북도 울진군 죽변면 봉평리 577,경상북도 울진군 죽변면 봉평리 577,37.0475001601,129.409917,165,50,Y,054-789-6153,,봉평지구1,,,,미적용,,490,16,,,,울진군,054-789-6153,2019-06-30
죽변119안전센터,지진해일대피소,지진해일 긴급대피장소,기타,경상북도 울진군 죽변면 후정리 381-6,경상북도 울진군 죽변면 후정리 381-6,37.055117,129.412672,99,30,Y,054-789-6153,,"죽변1,2지구",,,,미적용,,1000,26,,,,울진군,054-789-6153,2019-06-30
용진모텔뒤공터,지진해일대피소,지진해일 긴급대피장소,공터,경상북도 울진군 죽변면 후정리 294,경상북도 울진군 죽변면 후정리 294,37.0576791232,129.417238,330,100,Y,054-789-6153,,"죽변1,2지구",,,,미적용,,610,16,,,,울진군,054-789-6153,2019-06-30
동도빌라,지진해일대피소,지진해일 긴급대피장소,공터,경상북도 울진군 죽변면 죽변리 418-82,경상북도 울진군 죽변면 죽변리 418-82,37.0599747575,129.418513805,1650,500,Y,054-789-6153,,"죽변1,2지구",,,,미적용,,290,34,,,,울진군,054-789-6153,2019-06-30
죽변면민회관,지진해일대피소,지진해일 긴급대피장소,기타,경상북도 울진군 죽변면 죽변리 57-14,경상북도 울진군 죽변면 죽변리 57-14,37.0612761239,129.422723205,2772,840,Y,054-789-6153,,"죽변1,2지구",,,,미적용,,380,15,,,,울진군,054-789-6153,2019-06-30
죽변초등학교,지진해일대피소,지진해일 긴급대피장소,운동장,경상북도 울진군 죽변면 죽변리 190,경상북도 울진군 죽변면 죽변리 190,37.063811,129.421781,1485,450,Y,054-789-6153,,"죽변1,2지구",,,,미적용,,490,17,,,,울진군,054-789-6153,2019-06-30
정구장,지진해일대피소,지진해일 긴급대피장소,공터,경상북도 울진군 죽변면 죽변리 1,경상북도 울진군 죽변면 죽변리 1,37.0580088229,129.428311318,1485,450,Y,054-789-6153,,"죽변1,2지구",,,,미적용,,680,26,,,,울진군,054-789-6153,2019-06-30
죽변중고등학교,지진해일대피소,지진해일 긴급대피장소,운동장,경상북도 울진군 죽변면 죽변리 215,경상북도 울진군 죽변면 죽변리 215,37.064579,129.420300,1650,500,Y,054-789-6153,,"죽변1,2지구",,,,미적용,,580,21,,,,울진군,054-789-6153,2019-06-30
부구리582-2일대밭,지진해일대피소,지진해일 긴급대피장소,공터,경상북도 울진군 북면 부구리 528-2,경상북도 울진군 북면 부구리 528-2,37.101492,129.365639,660,200,Y,054-789-6153,,부구지구2,,,,미적용,,180,25,,,,울진군,054-789-6153,2019-06-30
용궁모텔뒤밭,지진해일대피소,지진해일 긴급대피장소,공터,경상북도 울진군 북면 부구리 278,경상북도 울진군 북면 부구리 278,37.1025884678,129.371983808,330,100,Y,054-789-6153,,부구지구1,,,,미적용,,520,24,,,,울진군,054-789-6153,2019-06-30
한중아파트뒤밭,지진해일대피소,지진해일 긴급대피장소,공터,경상북도 울진군 북면 부구리 319-1,경상북도 울진군 북면 부구리 319-1,37.102504,129.367413,660,200,Y,054-789-6153,,부구지구2,,,,미적용,,420,26,,,,울진군,054-789-6153,2019-06-30
사슴농장앞도로,지진해일대피소,지진해일 긴급대피장소,기타,경상북도 울진군 경상북도 울진군 북면  중흥부길 35-10,경상북도 울진군 경상북도 울진군 북면  중흥부길 35-10,37.102807,129.357159,330,100,Y,054-789-6153,,부구지구2,,,,미적용,,720,18,,,,울진군,054-789-6153,2019-06-30
마을회관뒤밭,지진해일대피소,지진해일 긴급대피장소,공터,경상북도 울진군 북면 부구리 159-9,경상북도 울진군 북면 부구리 159-9,37.103860,129.372431,165,50,Y,054-789-6153,,부구지구1,,,,미적용,,80,12,,,,울진군,054-789-6153,2019-06-30
북면사무소,지진해일대피소,지진해일 긴급대피장소,공터,경상북도 울릉군 북면 천부리 529-8,경상북도 울릉군 북면 천부리 529-8,37.5447131,130.8734365,660,200,Y,054-790-6332,,천부지구,,,,미적용,,146,16,,,,울릉군,054-790-6332,2019-06-30
북면사무소,지진해일대피소,지진해일 긴급대피장소,기타,경상북도 울진군 북면 부구3길 12,경상북도 울진군 북면 부구3길 12,37.104879,129.373089595,330,100,Y,054-790-6332,,부구지구1,,,,미적용,,200,8,,,,울진군,054-789-6153,2019-06-30
부구교회뒤밭,지진해일대피소,지진해일 긴급대피장소,공터,경상북도 울진군 북면 부구리 159-9,경상북도 울진군 북면 부구리 159-9,37.105830,129.374733,165,50,Y,054-789-6153,,부구지구1,,,,미적용,,330,16,,,,울진군,054-789-6153,2019-06-30
한수원아파트,지진해일대피소,지진해일 긴급대피장소,공터,경상북도 울진군 북면 나곡리 178-1,경상북도 울진군 북면 나곡리 178-1,37.109534,129.371770,1650,500,Y,054-789-6153,,나곡지구3,,,,미적용,,610,8,,,,울진군,054-789-6153,2019-06-30
나곡리 50-18 야산,지진해일대피소,지진해일 긴급대피장소,공터,경상북도 울진군 경상북도 울진군 북면 나곡리 50-18,경상북도 울진군 경상북도 울진군 북면 나곡리 50-18,37.113595,129.375860,132,40,Y,054-789-6153,,나곡지구3,,,,미적용,,250,15,,,,울진군,054-789-6153,2019-06-30
석호마을아파트,지진해일대피소,지진해일 긴급대피장소,기타,경상북도 울진군 울진북로 나곡리 62-1,경상북도 울진군 울진북로 나곡리 62-1,37.114456,129.373484,1089,330,Y,054-789-6153,,나곡지구3,,,,미적용,,230,7,,,,울진군,054-789-6153,2019-06-30
나곡리 129-4 공터,지진해일대피소,지진해일 긴급대피장소,공터,경상북도 울진군 경상북도 울진군 북면 나곡리 129-4,경상북도 울진군 경상북도 울진군 북면 나곡리 129-4,37.117121,129.378150,132,40,Y,054-789-6153,,나곡지구3,,,,미적용,,880,21,,,,울진군,054-789-6153,2019-06-30
모텔휠파크앞도로,지진해일대피소,지진해일 긴급대피장소,기타,경상북도 울진군 북면 나곡리 686-7,경상북도 울진군 북면 나곡리 686-7,37.124414,129.370648,1188,360,Y,054-789-6153,,나곡지구2,,,,미적용,,280,14,,,,울진군,054-789-6153,2019-06-30
나곡리725-2일대밭,지진해일대피소,지진해일 긴급대피장소,공터,경상북도 울진군 북면 나곡리 725-2,경상북도 울진군 북면 나곡리 725-2,37.125345,129.369187,660,200,Y,054-789-6153,,나곡지구2,,,,미적용,,390,15,,,,울진군,054-789-6153,2019-06-30
나곡비치모텔,지진해일대피소,지진해일 긴급대피장소,공터,경상북도 울진군 북면 나곡리 880,경상북도 울진군 북면 나곡리 880,37.127146,129.370647,165,50,Y,054-789-6153,,나곡지구2,,,,미적용,,60,15,,,,울진군,054-789-6153,2019-06-30
만남의광장앞도로,지진해일대피소,지진해일 긴급대피장소,기타,경상북도 울진군 북면 나곡리 719,경상북도 울진군 북면 나곡리 719,37.128572,129.367804,660,200,Y,054-789-6153,,나곡지구2,,,,미적용,,390,16,,,,울진군,054-789-6153,2019-06-30
나곡리1146-3주변,지진해일대피소,지진해일 긴급대피장소,공터,경상북도 울진군 북면 나곡리 산14-16,경상북도 울진군 북면 나곡리 산14-16,37.141780,129.361378,330,100,Y,054-789-6153,,나곡지구1,,,,미적용,,410,33,,,,울진군,054-789-6153,2019-06-30
금세골,지진해일대피소,지진해일 긴급대피장소,기타,경상북도 울진군 북면 나곡리 1134,경상북도 울진군 북면 나곡리 1134,37.143718,129.359735,330,100,Y,054-789-6153,,나곡지구1,,,,미적용,,170,49,,,,울진군,054-789-6153,2019-06-30
마을공터,지진해일대피소,지진해일 긴급대피장소,공터,강원도 삼척시 원덕읍 월천리 106,강원도 삼척시 원덕읍 월천리 106,37.1564304,129.3555169,660,200,Y,033-570-3887,,월천지구,,,,미적용,,377,41,,,,삼척시,033-570-3887,2019-06-30
빗물펌프장뒤공터,지진해일대피소,지진해일 긴급대피장소,기타,강원도 삼척시 원덕읍 호산리 299-7,강원도 삼척시 원덕읍 호산리 299-7,37.173482,129.342842,660,200,Y,033-570-3887,,호산지구,,,,미적용,,473,18,,,,삼척시,033-570-3887,2019-06-30
호산항뒷산공터,지진해일대피소,지진해일 긴급대피장소,공터,강원도 삼척시 원덕읍 호산리 309,강원도 삼척시 원덕읍 호산리 309,37.174803,129.341531,825,250,Y,033-570-3887,,호산지구,,,,미적용,,350,26,,,,삼척시,033-570-3887,2019-06-30
호산파출소뒤공터,지진해일대피소,지진해일 긴급대피장소,공터,강원도 삼척시 원덕읍 호산리 277,강원도 삼척시 원덕읍 호산리 277,37.174945,129.338454,1072.5,325,Y,033-570-3887,,호산지구,,,,미적용,,300,20,,,,삼척시,033-570-3887,2019-06-30
작진마을진입공터,지진해일대피소,지진해일 긴급대피장소,공터,강원도 삼척시 원덕읍 노곡리 473-1,강원도 삼척시 원덕읍 노곡리 473-1,37.196270,129.337170,660,200,Y,033-570-3887,,작진지구,,,,미적용,,287,30,,,,삼척시,033-570-3887,2019-06-30
노실분교운동장,지진해일대피소,지진해일 긴급대피장소,운동장,강원도 삼척시 원덕읍 노곡리 142-2,강원도 삼척시 원덕읍 노곡리 142-2,37.2022399,129.341632,660,200,Y,033-570-3887,,노실지구,,,,미적용,,326,25,,,,삼척시,033-570-3887,2019-06-30
임원국도옆공터,지진해일대피소,지진해일 긴급대피장소,공터,강원도 삼척시 원덕읍 임원리 165,강원도 삼척시 원덕읍 임원리 165,37.2305472,129.3417538,330,100,Y,033-570-3887,,임원지구,,,,미적용,,435,45,,,,삼척시,033-570-3887,2019-06-30
남화산공원,지진해일대피소,지진해일 긴급대피장소,공터,강원도 삼척시 원덕읍 임원리 44,강원도 삼척시 원덕읍 임원리 44,37.231370,129.347406,330,100,Y,033-570-3887,,임원지구,,,,미적용,,835,60,,,,삼척시,033-570-3887,2019-06-30
임원마을회관옆공터,지진해일대피소,지진해일 긴급대피장소,공터,강원도 삼척시 원덕읍 임원리 1208-52,강원도 삼척시 원덕읍 임원리 1208-52,37.2332399798,129.3448605012,495,150,Y,033-570-3887,,임원지구,,,,미적용,,335,35,,,,삼척시,033-570-3887,2019-06-30
돌기해삼배양장,지진해일대피소,지진해일 긴급대피장소,공터,강원도 삼척시 원덕읍 갈남리 456-1,강원도 삼척시 원덕읍 갈남리 456-1,37.2657912,129.3235807,330,100,Y,033-570-3887,,신남지구,,,,미적용,,321,21,,,,삼척시,033-570-3887,2019-06-30
어촌민속전시관공원내,지진해일대피소,지진해일 긴급대피장소,공터,강원도 삼척시 원덕읍 갈남리 301,강원도 삼척시 원덕읍 갈남리 301,37.2679876,129.3273171,330,100,Y,033-570-3887,,신남지구,,,,미적용,,351,35,,,,삼척시,033-570-3887,2019-06-30
갈남마을회관뒤공터,지진해일대피소,지진해일 긴급대피장소,공터,강원도 삼척시 원덕읍 갈남리 177-2,강원도 삼척시 원덕읍 갈남리 177-2,37.2778206,129.3262889,330,100,Y,033-570-3887,,갈남지구,,,,미적용,,391,30,,,,삼척시,033-570-3887,2019-06-30
갈남전망대,지진해일대피소,지진해일 긴급대피장소,기타,강원도 삼척시 원덕읍 갈남리 104-24,강원도 삼척시 원덕읍 갈남리 104-24,37.2810788,129.322872,330,100,Y,033-570-3887,,갈남지구,,,,미적용,,385,32,,,,삼척시,033-570-3887,2019-06-30
장호중학교뒤공터,지진해일대피소,지진해일 긴급대피장소,공터,강원도 삼척시 근덕면 장호리 201,강원도 삼척시 근덕면 장호리 201,37.2837729,129.311543,660,200,Y,033-570-3887,,장호지구,,,,미적용,,608,30,,,,삼척시,033-570-3887,2019-06-30
장호마을주차장,지진해일대피소,지진해일 긴급대피장소,공터,강원도 삼척시 근덕면 장호리 54-2,강원도 삼척시 근덕면 장호리 54-2,37.2850347,129.3187619,495,150,Y,033-570-3887,,장호지구,,,,미적용,,511,25,,,,삼척시,033-570-3887,2019-06-30
장호용화랜드앞공터,지진해일대피소,지진해일 긴급대피장소,공터,강원도 삼척시 근덕면 장호리 318-1,강원도 삼척시 근덕면 장호리 318-1,37.2874718,129.3083132,660,200,Y,033-570-3887,,용화지구,,,,미적용,,548,39,,,,삼척시,033-570-3887,2019-06-30
성황당옆대로,지진해일대피소,지진해일 긴급대피장소,기타,강원도 삼척시 근덕면 용화리 298-1,강원도 삼척시 근덕면 용화리 298-1,37.288680,129.298198,330,100,Y,033-570-3887,,용화지구,,,,미적용,,615,31,,,,삼척시,033-570-3887,2019-06-30
해망정공터,지진해일대피소,지진해일 긴급대피장소,공터,강원도 삼척시 근덕면 용화리 192-2,강원도 삼척시 근덕면 용화리 192-2,37.288741,129.303243,330,100,Y,033-570-3887,,용화지구,,,,미적용,,175,37,,,,삼척시,033-570-3887,2019-06-30
해상로프웨이,지진해일대피소,지진해일 긴급대피장소,기타,강원도 삼척시 근덕면 용화리 6,강원도 삼척시 근덕면 용화리 6,37.289124,129.308218,660,200,Y,033-570-3887,,용화지구,,,,적용,1등급,150,30,,,,삼척시,033-570-3887,2019-06-30
황영조기념관앞공터,지진해일대피소,지진해일 긴급대피장소,공터,강원도 삼척시 근덕면 초곡리 51,강원도 삼척시 근덕면 초곡리 51,37.3072552,129.294732,660,200,Y,033-570-3887,,초곡지구,,,,미적용,,463,30,,,,삼척시,033-570-3887,2019-06-30
초곡마을입구공터,지진해일대피소,지진해일 긴급대피장소,공터,강원도 삼척시 근덕면 초곡리 406-11,강원도 삼척시 근덕면 초곡리 406-11,37.310744,129.284840,330,100,Y,033-570-3887,,초곡지구,,,,미적용,,450,16,,,,삼척시,033-570-3887,2019-06-30
금메달주유소뒷산,지진해일대피소,지진해일 긴급대피장소,공터,강원도 삼척시 근덕면 매원리 35-4,강원도 삼척시 근덕면 매원리 35-4,37.316661,129.271400,330,100,Y,033-570-3887,,궁촌지구,,,,미적용,,650,43,,,,삼척시,033-570-3887,2019-06-30
궁촌침례교회앞공터,지진해일대피소,지진해일 긴급대피장소,공터,강원도 삼척시 근덕면 궁촌리 393,강원도 삼척시 근덕면 궁촌리 393,37.3212882,129.265109,330,100,Y,033-570-3887,,궁촌지구,,,,미적용,,398,32,,,,삼척시,033-570-3887,2019-06-30
공양왕릉,지진해일대피소,지진해일 긴급대피장소,공터,강원도 삼척시 근덕면 궁촌리 178,강원도 삼척시 근덕면 궁촌리 178,37.326132,129.266356,330,100,Y,033-570-3887,,궁촌지구,,,,미적용,,536,55,,,,삼척시,033-570-3887,2019-06-30
노인요양원앞공터,지진해일대피소,지진해일 긴급대피장소,공터,강원도 삼척시 근덕면 덕산리 36,강원도 삼척시 근덕면 덕산리 36,37.3784905,129.246983,330,100,Y,033-570-3887,,덕산지구,,,,미적용,,1150,54,,,,삼척시,033-570-3887,2019-06-30
관덕정공터,지진해일대피소,지진해일 긴급대피장소,공터,강원도 삼척시 근덕면 교가리 671-7,강원도 삼척시 근덕면 교가리 671-7,37.3799576,129.2235783,990,300,Y,033-570-3887,,하맹방지구,,,,미적용,,830,38,,,,삼척시,033-570-3887,2019-06-30
솔바람민박앞공터,지진해일대피소,지진해일 긴급대피장소,공터,강원도 삼척시 근덕면 덕산리 291,강원도 삼척시 근덕면 덕산리 291,37.3809589,129.242343,495,150,Y,033-570-3887,,덕산지구,,,,미적용,,800,19,,,,삼척시,033-570-3887,2019-06-30
삼림욕장공터,지진해일대피소,지진해일 긴급대피장소,공터,강원도 삼척시 근덕면 하맹방리 221-7,강원도 삼척시 근덕면 하맹방리 221-7,37.392228,129.227908,990,300,Y,033-570-3887,,하맹방지구,,,,미적용,,100,15,,,,삼척시,033-570-3887,2019-06-30
맹방초등학교,지진해일대피소,지진해일 긴급대피장소,운동장,강원도 삼척시 근덕면 상맹방리 171-1,강원도 삼척시 근덕면 상맹방리 171-1,37.3981162,129.2131070,660,200,Y,033-570-3887,,상맹방2지구,,,,미적용,,423,15,,,,삼척시,033-570-3887,2019-06-30
국도굴다리옆공터,지진해일대피소,지진해일 긴급대피장소,기타,강원도 삼척시 근덕면 상맹방리 229-4,강원도 삼척시 근덕면 상맹방리 229-4,37.404599,129.204345,330,100,Y,033-570-3887,,상맹방1지구,,,,미적용,,250,13,,,,삼척시,033-570-3887,2019-06-30
남초교뒷산,지진해일대피소,지진해일 긴급대피장소,공터,강원도 삼척시 오분동 164-2,강원도 삼척시 오분동 164-2,37.425834,129.186839,264,80,Y,033-570-3887,,오분지구,,,,미적용,,480,41,,,,삼척시,033-570-3887,2019-06-30
오분마을회관뒤공터,지진해일대피소,지진해일 긴급대피장소,공터,강원도 삼척시 오분동 212,강원도 삼척시 오분동 212,37.4274840979,129.1897730638,297,90,Y,033-570-3887,,오분지구,,,,미적용,,460,32,,,,삼척시,033-570-3887,2019-06-30
오분파출소뒷편,지진해일대피소,지진해일 긴급대피장소,공터,강원도 삼척시 오분동 228-5,강원도 삼척시 오분동 228-5,37.4303964,129.1888574,264,80,Y,033-570-3887,,오분지구,,,,미적용,,257,39,,,,삼척시,033-570-3887,2019-06-30
척추동해비,지진해일대피소,지진해일 긴급대피장소,공터,강원도 삼척시 정상동 82-1,강원도 삼척시 정상동 82-1,37.4357221369,129.1842832725,330,100,Y,033-570-3887,,정라지구,,,,미적용,,508,34,,,,삼척시,033-570-3887,2019-06-30
감로사앞공터,지진해일대피소,지진해일 긴급대피장소,공터,강원도 삼척시 정상동 3-1,강원도 삼척시 정상동 3-1,37.440605,129.183813,330,100,Y,033-570-3887,,정라지구,,,,미적용,,368,38,,,,삼척시,033-570-3887,2019-06-30
정라마을회관뒤공터,지진해일대피소,지진해일 긴급대피장소,공터,강원도 삼척시 정하동 28-1,강원도 삼척시 정하동 28-1,37.442234,129.187489,330,100,Y,033-570-3887,,정라지구,,,,미적용,,548,76,,,,삼척시,033-570-3887,2019-06-30
조각공원뒷산,지진해일대피소,지진해일 긴급대피장소,공터,강원도 삼척시 교동 85-5,강원도 삼척시 교동 85-5,37.4564988,129.184913,330,100,Y,033-570-3887,,정라지구,,,,미적용,,247,27,,,,삼척시,033-570-3887,2019-06-30
농업기술센터,지진해일대피소,지진해일 긴급대피장소,공터,경상북도 울릉군 울릉읍 사동리 541-8,경상북도 울릉군 울릉읍 사동리 541-8,37.4642162,130.8722842,660,200,Y,054-790-6332,,사동지구,,,,미적용,,185,38,,,,울릉군,054-790-6332,2019-06-30
삼척요양원앞공터,지진해일대피소,지진해일 긴급대피장소,공터,강원도 삼척시 교동 395,강원도 삼척시 교동 395,37.4619928,129.174477,495,150,Y,033-570-3887,,후진지구,,,,미적용,,575,37,,,,삼척시,033-570-3887,2019-06-30
서면사무소,지진해일대피소,지진해일 긴급대피장소,공터,경상북도 울릉군 서면 남양리 180,경상북도 울릉군 서면 남양리 180,37.4671772,130.8547110,330,100,Y,054-790-6332,,남양지구,,,,미적용,,136,16,,,,울릉군,054-790-6332,2019-06-30
삼척MBC앞공터,지진해일대피소,지진해일 긴급대피장소,공터,강원도 삼척시 교동 갈천동 111,강원도 삼척시 교동 갈천동 111,37.463388,129.163119,495,150,Y,033-570-3887,,후진지구,,,,미적용,,261,30,,,,삼척시,033-570-3887,2019-06-30
남양초등학교,지진해일대피소,지진해일 긴급대피장소,운동장,경상북도 울릉군 서면 남서리 30-3,경상북도 울릉군 서면 남서리 30-3,37.4734860,130.8347969,1320,400,Y,054-791-2296,,남양지구,,,,미적용,,336,21,,,,울릉군,054-791-2296,2019-06-30
쏠비치주자창,지진해일대피소,지진해일 긴급대피장소,공터,강원도 삼척시 갈천동 225,강원도 삼척시 갈천동 225,37.4723264,129.164759,660,200,Y,033-570-3887,,후진지구,,,,미적용,,580,40,,,,삼척시,033-570-3887,2019-06-30
쏠비치주자창,지진해일대피소,지진해일 긴급대피장소,기타,강원도 삼척시 교동 산61-3,강원도 삼척시 교동 산61-3,37.472401,129.164759,660,200,Y,033-570-3887,,증산지구,,,,미적용,,437,40,,,,삼척시,033-570-3887,2019-06-30
심심사앞공터,지진해일대피소,지진해일 긴급대피장소,공터,강원도 삼척시 교동 증산동 63,강원도 삼척시 교동 증산동 63,37.473001,129.161064,165,50,Y,033-570-3887,,증산지구,,,,미적용,,164,20,,,,삼척시,033-570-3887,2019-06-30
이사부공원공터,지진해일대피소,지진해일 긴급대피장소,공터,강원도 삼척시 교동 증산동 1,강원도 삼척시 교동 증산동 1,37.475559,129.159032,660,200,Y,033-570-3887,,증산지구,,,,미적용,,344,32,,,,삼척시,033-570-3887,2019-06-30
추암택지,지진해일대피소,지진해일 긴급대피장소,기타,강원도 동해시 추암동 24-2,강원도 동해시 추암동 24-2,37.475812,129.156067,1650,500,Y,033-530-2313,,추암지구,,,,미적용,,500,35,,,,동해시,033-530-2313,2019-06-30
북평공단 소공원,지진해일대피소,지진해일 긴급대피장소,공터,강원도 동해시 구호동 249-1,강원도 동해시 구호동 249-1,37.479607,129.155405,660,200,Y,033-530-2313,,추암지구,,,,미적용,,400,13,,,,동해시,033-530-2313,2019-06-30
추암조각공원,지진해일대피소,지진해일 긴급대피장소,공터,강원도 동해시 추암동 477,강원도 동해시 추암동 477,37.479682,129.157434,1320,400,Y,033-530-2313,,추암지구,,,,미적용,,350,11,,,,동해시,033-530-2313,2019-06-30
울릉중학교,지진해일대피소,지진해일 긴급대피장소,운동장,경상북도 울릉군 울릉읍 도동리 223-8,경상북도 울릉군 울릉읍 도동리 223-8,37.4889043,130.9014516,1320,400,Y,054-791-2296,,도동지구,,,,미적용,,328,48,,,,울릉군,054-791-2296,2019-06-30
만경대,지진해일대피소,지진해일 긴급대피장소,공터,강원도 동해시 구미동 산53,강원도 동해시 구미동 산53,37.487154,129.136641,165,50,Y,033-530-2313,,추암지구,,,,미적용,,100,31,,,,동해시,033-530-2313,2019-06-30
하수종말처리장,지진해일대피소,지진해일 긴급대피장소,기타,강원도 동해시 구미동 산5-9,강원도 동해시 구미동 산5-9,37.490505,129.143402,330,100,Y,033-530-2313,,추암지구,,,,미적용,,500,31,,,,동해시,033-530-2313,2019-06-30
할미바위 옆 쉼터,지진해일대피소,지진해일 긴급대피장소,공터,강원도 동해시 구미동 산5-1,강원도 동해시 구미동 산5-1,37.490779,129.145446,660,200,Y,033-530-2313,,추암지구,,,,미적용,,400,15,,,,동해시,033-530-2313,2019-06-30
울릉고등학교,지진해일대피소,지진해일 긴급대피장소,운동장,경상북도 울릉군 울릉읍 도동리 350,경상북도 울릉군 울릉읍 도동리 350,37.4929957097,130.9073522880,2310,700,Y,054-791-2296,,저동지구,,,,미적용,,192,27,,,,울릉군,054-791-2296,2019-06-30
우산중학교,지진해일대피소,지진해일 긴급대피장소,운동장,경상북도 울릉군 울릉읍 남강리 1113,경상북도 울릉군 울릉읍 남강리 1113,37.494907,130.906256,1650,500,Y,054-791-2296,,저동지구,,,,미적용,,330,45,,,,울릉군,054-791-2296,2019-06-30
태하출장소,지진해일대피소,지진해일 긴급대피장소,공터,경상북도 울릉군 서면 태하리 695-8,경상북도 울릉군 서면 태하리 695-8,37.5149963,130.7975800,165,50,Y,054-790-6332,,태하지구,,,,미적용,,343,14,,,,울릉군,054-790-6332,2019-06-30
태하분교,지진해일대피소,지진해일 긴급대피장소,운동장,경상북도 울릉군 서면 태하리 521-2,경상북도 울릉군 서면 태하리 521-2,37.5172236,130.8006330,165,50,Y,054-791-2296,,태하지구,,,,미적용,,351,16,,,,울릉군,054-791-2296,2019-06-30
감추사해안도로주차장,지진해일대피소,지진해일 긴급대피장소,공터,강원도 동해시 천곡동 1090-28,강원도 동해시 천곡동 1090-28,37.515598,129.124922,99,30,Y,033-530-2313,,용정지구,,,,미적용,,150,27,,,,동해시,033-530-2313,2019-06-30
법원삼거리옆 산책로,지진해일대피소,지진해일 긴급대피장소,공터,강원도 동해시 천곡동 1090-14,강원도 동해시 천곡동 1090-14,37.519598,129.121746,330,100,Y,033-530-2313,,천곡지구,,,,미적용,,260,18,,,,동해시,033-530-2313,2019-06-30
울릉서중학교,지진해일대피소,지진해일 긴급대피장소,운동장,경상북도 울릉군 북면 현포리 549,경상북도 울릉군 북면 현포리 549,37.5281414,130.8205636,1320,400,Y,054-791-2296,,남양지구,,,,미적용,,228,17,,,,울릉군,054-791-2296,2019-06-30
가세마을야산,지진해일대피소,지진해일 긴급대피장소,공터,강원도 동해시 천곡동 1-4,강원도 동해시 천곡동 1-4,37.527528,129.121971,330,100,Y,033-530-2313,,천곡지구,,,,미적용,,300,22,,,,동해시,033-530-2313,2019-06-30
하평 주차장,지진해일대피소,지진해일 긴급대피장소,공터,강원도 동해시 천곡동 84-1,강원도 동해시 천곡동 84-1,37.533878,129.115729,165,50,Y,033-530-2313,,부곡지구,,,,미적용,,150,13,,,,동해시,033-530-2313,2019-06-30
평릉공원,지진해일대피소,지진해일 긴급대피장소,공터,강원도 동해시 평릉동 102-2,강원도 동해시 평릉동 102-2,37.536024,129.112147,330,100,Y,033-530-2313,,부곡지구,,,,미적용,,400,22,,,,동해시,033-530-2313,2019-06-30
현포분교,지진해일대피소,지진해일 긴급대피장소,운동장,경상북도 울릉군 북면 천부리 694,경상북도 울릉군 북면 천부리 694,37.5406249,130.8701618,990,300,Y,054-791-2296,,현포지구,,,,미적용,,231,33,,,,울릉군,054-791-2296,2019-06-30
천부초등학교,지진해일대피소,지진해일 긴급대피장소,운동장,경상북도 울릉군 북면 천부리 529-8,경상북도 울릉군 북면 천부리 529-8,37.5447131,130.8734365,990,300,Y,054-791-2296,,천부지구,,,,미적용,,228,55,,,,울릉군,054-791-2296,2019-06-30
묵호대교,지진해일대피소,지진해일 긴급대피장소,기타,강원도 동해시 발한동 80-303,강원도 동해시 발한동 80-303,37.541447,129.110979,990,300,Y,033-530-2313,,"묵호,발한지구",,,,미적용,,300,22,,,,동해시,033-530-2313,2019-06-30
산제골도로,지진해일대피소,지진해일 긴급대피장소,기타,강원도 동해시 묵호진동 78-60,강원도 동해시 묵호진동 78-60,37.553543,129.113747,660,200,Y,033-530-2313,,"묵호,발한지구",,,,미적용,,250,30,,,,동해시,033-530-2313,2019-06-30
논골도로,지진해일대피소,지진해일 긴급대피장소,기타,강원도 동해시 묵호진동 102-9,강원도 동해시 묵호진동 102-9,37.554126,129.116271,660,200,Y,033-530-2313,,"묵호,발한지구",,,,미적용,,250,29,,,,동해시,033-530-2313,2019-06-30
일출공원,지진해일대피소,지진해일 긴급대피장소,공터,강원도 동해시 묵호진동 2-126,강원도 동해시 묵호진동 2-126,37.555070,129.120040,330,100,Y,033-530-2313,,"묵호,발한지구",,,,미적용,,50,23,,,,동해시,033-530-2313,2019-06-30
동해비치호텔위 마을주차장,지진해일대피소,지진해일 긴급대피장소,공터,강원도 동해시 묵호진동 2-42,강원도 동해시 묵호진동 2-42,37.557873,129.120719,330,100,Y,033-530-2313,,어달지구,,,,미적용,,100,20,,,,동해시,033-530-2313,2019-06-30
바위섬횟집뒤 도로,지진해일대피소,지진해일 긴급대피장소,기타,강원도 동해시 어달동 11-11,강원도 동해시 어달동 11-11,37.560734,129.118912,330,100,Y,033-530-2313,,어달지구,,,,미적용,,100,16,,,,동해시,033-530-2313,2019-06-30
선창횟집뒤,지진해일대피소,지진해일 긴급대피장소,공터,강원도 동해시 어달동 25,강원도 동해시 어달동 25,37.562864,129.119225,1320,400,Y,033-530-2313,,어달지구,,,,미적용,,90,20,,,,동해시,033-530-2313,2019-06-30
어달소공원,지진해일대피소,지진해일 긴급대피장소,공터,강원도 동해시 어달동 47,강원도 동해시 어달동 47,37.565480,129.118624,1320,400,Y,033-530-2313,,어달지구,,,,미적용,,280,28,,,,동해시,033-530-2313,2019-06-30
어달마을내 도로,지진해일대피소,지진해일 긴급대피장소,기타,강원도 동해시 어달동 134-5,강원도 동해시 어달동 134-5,37.567126,129.117725,1320,400,Y,033-530-2313,,어달지구,,,,미적용,,100,12,,,,동해시,033-530-2313,2019-06-30
단병공입구,지진해일대피소,지진해일 긴급대피장소,기타,강원도 동해시 대진동 155-8,강원도 동해시 대진동 155-8,37.577017,129.114684,660,200,Y,033-530-2313,,어달지구,,,,미적용,,200,24,,,,동해시,033-530-2313,2019-06-30
대진도로,지진해일대피소,지진해일 긴급대피장소,기타,강원도 동해시 대진동 196-4,강원도 동해시 대진동 196-4,37.579834,129.112595,990,300,Y,033-530-2313,,어달지구,,,,미적용,,100,15,,,,동해시,033-530-2313,2019-06-30
목재유통센터,지진해일대피소,지진해일 긴급대피장소,공터,강원도 동해시 망상동 721,강원도 동해시 망상동 721,37.581666,129.099655,1320,400,Y,033-530-2313,,노봉지구,,,,미적용,,700,28,,,,동해시,033-530-2313,2019-06-30
노봉택지,지진해일대피소,지진해일 긴급대피장소,공터,강원도 동해시 망상동 14-5,강원도 동해시 망상동 14-5,37.582091,129.105464,1320,400,Y,033-530-2313,,노봉지구,,,,미적용,,550,27,,,,동해시,033-530-2313,2019-06-30
노봉해수욕장내 야산,지진해일대피소,지진해일 긴급대피장소,공터,강원도 동해시 망상동 170-1,강원도 동해시 망상동 170-1,37.588287,129.098160,1320,400,Y,033-530-2313,,노봉지구,,,,미적용,,100,19,,,,동해시,033-530-2313,2019-06-30
망상초등학교 옆,지진해일대피소,지진해일 긴급대피장소,공터,강원도 동해시 망상동 360-5,강원도 동해시 망상동 360-5,37.591345,129.089602,6600,2000,Y,033-530-2313,,망상지구,,,,미적용,,330,10,,,,동해시,033-530-2313,2019-06-30
해군전적비,지진해일대피소,지진해일 긴급대피장소,공터,강원도 동해시 망상동 396-40,강원도 동해시 망상동 396-40,37.593910,129.084662,9900,3000,Y,033-530-2313,,망상지구,,,,미적용,,290,17,,,,동해시,033-530-2313,2019-06-30
기곡마을입구,지진해일대피소,지진해일 긴급대피장소,공터,강원도 동해시 망상동 409-21,강원도 동해시 망상동 409-21,37.596084,129.080633,16500,5000,Y,033-530-2313,,망상지구,,,,미적용,,460,24,,,,동해시,033-530-2313,2019-06-30
옥계역,지진해일대피소,지진해일 긴급대피장소,기타,강원도 강릉시 옥계면 주수리 100,강원도 강릉시 옥계면 주수리 100,37.6166674,129.0501738,231,70,Y,033-640-5531,,옥계,,,,적용,1등급,600,11,,,,강릉시,033-640-5531,2019-06-30
한국여성수련원,지진해일대피소,지진해일 긴급대피장소,기타,강원도 강릉시 옥계면 금진리 464-1,강원도 강릉시 옥계면 금진리 464-1,37.6296988,129.0460249,20790,6300,Y,033-640-5532,,옥계,,,,적용,1등급,300,10,,,,강릉시,033-640-5532,2019-06-30
기마봉 야산,지진해일대피소,지진해일 긴급대피장소,공터,강원도 강릉시 옥계면 금진리 96,강원도 강릉시 옥계면 금진리 96,37.655441,129.048468,6600,2000,Y,033-640-5533,,옥계,,,,미적용,,300,10,,,,강릉시,033-640-5533,2019-06-30
곰두리연수원,지진해일대피소,지진해일 긴급대피장소,기타,강원도 강릉시 강동면 심곡리 57,강원도 강릉시 강동면 심곡리 57,37.6671145,129.0506076,495,150,Y,033-640-5530,,심곡,,,,적용,2등급,350,61,,,,강릉시,033-640-5530,2019-06-30
정동허브랜드,지진해일대피소,지진해일 긴급대피장소,기타,강원도 강릉시 강동면 정동진리 51-4,강원도 강릉시 강동면 정동진리 51-4,37.6809901,129.0416680,858,260,Y,033-640-5529,,정동지구,,,,적용,2등급,400,63,,,,강릉시,033-640-5529,2019-06-30
정동초등학교,지진해일대피소,지진해일 긴급대피장소,기타,강원도 강릉시 강동면 정동진리 184,강원도 강릉시 강동면 정동진리 184,37.6876152,129.0334920,528,160,Y,033-640-5528,,정동진,,,,적용,1등급,300,10,,,,강릉시,033-640-5528,2019-06-30
고성산,지진해일대피소,지진해일 긴급대피장소,공터,강원도 강릉시 강동면 정동진리 300-2,강원도 강릉시 강동면 정동진리 300-2,37.690060,129.032624,396,120,Y,033-640-5569,,정동진,,,,미적용,,200,53,,,,강릉시,033-640-5569,2019-06-30
강인교회,지진해일대피소,지진해일 긴급대피장소,기타,강원도 강릉시 강동면 안인진리 270-18,강원도 강릉시 강동면 안인진리 270-18,37.727727,128.9826124,495,150,Y,033-640-5528,,안인,,,,적용,2등급,600,12,,,,강릉시,033-640-5528,2019-06-30
안인천주교회,지진해일대피소,지진해일 긴급대피장소,기타,강원도 강릉시 강동면 안인진리 213-1,강원도 강릉시 강동면 안인진리 213-1,37.730761,128.9862362682,330,100,Y,033-640-5528,,안인지구,,,,적용,2등급,500,12,,,,강릉시,033-640-5528,2019-06-30
봉화산,지진해일대피소,지진해일 긴급대피장소,공터,강원도 강릉시 강동면 안인진리 20-1,강원도 강릉시 강동면 안인진리 20-1,37.736653,128.986957,165,50,Y,033-640-5569,,안인,,,,미적용,,300,58,,,,강릉시,033-640-5569,2019-06-30
하시동2리 마을회관,지진해일대피소,지진해일 긴급대피장소,기타,강원도 강릉시 강동면 하시동리 56-1,강원도 강릉시 강동면 하시동리 56-1,37.7372176,128.972745,330,100,Y,033-640-5528,,안인,,,,적용,2등급,900,27,,,,강릉시,033-640-5528,2019-06-30
세인트컨벤션웨딩홀,지진해일대피소,지진해일 긴급대피장소,기타,강원도 강릉시 성덕동 42,강원도 강릉시 성덕동 42,37.765126,128.949709,6171,1870,Y,033-640-5528,,남항진,,,,적용,2등급,250,12,,,,강릉시,033-640-5528,2019-06-30
죽도봉,지진해일대피소,지진해일 긴급대피장소,공터,강원도 강릉시 송정동 11-1,강원도 강릉시 송정동 11-1,37.769769,128.951554,2640,800,Y,033-640-5569,,강릉항,,,,미적용,,200,33,,,,강릉시,033-640-5569,2019-06-30
송정해변 신도브래뉴아파트,지진해일대피소,지진해일 긴급대피장소,기타,강원도 강릉시 송정동 289,강원도 강릉시 송정동 289,37.775796,128.937913,11550,3500,Y,033-640-5528,,강릉항,,,,적용,1등급,350,6,,,,강릉시,033-640-5528,2019-06-30
강릉고등학교,지진해일대피소,지진해일 긴급대피장소,기타,강원도 강릉시 초당동 70,강원도 강릉시 초당동 70,37.7843703,128.9202334,28380,8600,Y,033-640-5527,,강문지구,,,,적용,2등급,550,6,,,,강릉시,033-640-5527,2019-06-30
강릉교회,지진해일대피소,지진해일 긴급대피장소,기타,강원도 강릉시 초당동 134,강원도 강릉시 초당동 134,37.7834238,128.9168205,11880,3600,Y,033-640-5526,,강문,,,,적용,2등급,100,6,,,,강릉시,033-640-5526,2019-06-30
경포현대호텔,지진해일대피소,지진해일 긴급대피장소,기타,강원도 강릉시 강문동 274-1,강원도 강릉시 강문동 274-1,37.7979577,128.9153587,2310,700,Y,033-640-5524,,경포지구,,,,적용,1등급,100,26,,,,강릉시,033-640-5524,2019-06-30
현대아파트 앞 야산,지진해일대피소,지진해일 긴급대피장소,공터,강원도 강릉시 경포동 산10,강원도 강릉시 경포동 산10,37.801328,128.899588,6600,2000,Y,033-640-5525,,경포,,,,미적용,,800,10,,,,강릉시,033-640-5525,2019-06-30
경포산장콘도,지진해일대피소,지진해일 긴급대피장소,기타,강원도 강릉시 경포동 50-2,강원도 강릉시 경포동 50-2,37.809654,128.900098,2640,800,Y,033-640-5523,,경포,,,,적용,1등급,300,23,,,,강릉시,033-640-5523,2019-06-30
장구바위 야산,지진해일대피소,지진해일 긴급대피장소,공터,강원도 강릉시 사천면 사천진리 266-25,강원도 강릉시 사천면 사천진리 266-25,37.840727,128.875957,990,300,Y,033-640-5521,,사천뒷불,,,,미적용,,420,10,,,,강릉시,033-640-5521,2019-06-30
강릉성결교회 부설 진리수양관,지진해일대피소,지진해일 긴급대피장소,기타,강원도 강릉시 사천면 사천진리 산72-1,강원도 강릉시 사천면 사천진리 산72-1,37.841737,128.868683,924,280,Y,033-640-5522,,사천뒷불,,,,적용,1등급,1100,10,,,,강릉시,033-640-5522,2019-06-30
강릉원주대학 해양생물연구교육센터,지진해일대피소,지진해일 긴급대피장소,기타,강원도 강릉시 사천면 사천진리 산5-3,강원도 강릉시 사천면 사천진리 산5-3,37.8512474,128.8611468,19470,5900,Y,033-640-5520,,동덕,,,,적용,1등급,150,7,,,,강릉시,033-640-5520,2019-06-30
육군1901부대 2대대,지진해일대피소,지진해일 긴급대피장소,공터,강원도 강릉시 연곡면 영진리 137,강원도 강릉시 연곡면 영진리 137,37.866883,128.847534,2310,700,Y,033-640-5519,,영진항,,,,미적용,,300,29,,,,강릉시,033-640-5519,2019-06-30
주문진성당,지진해일대피소,지진해일 긴급대피장소,기타,강원도 강릉시 주문진읍 교항리 산56,강원도 강릉시 주문진읍 교항리 산56,37.8853623,128.821923,990,300,Y,033-640-5518,,주문진항,,,,적용,2등급,500,20,,,,강릉시,033-640-5518,2019-06-30
주문진감리교회,지진해일대피소,지진해일 긴급대피장소,기타,강원도 강릉시 주문진읍 주문리 346-1,강원도 강릉시 주문진읍 주문리 346-1,37.893890,128.826370,1650,500,Y,033-640-5517,,주문진항,,,,적용,2등급,300,10,,,,강릉시,033-640-5517,2019-06-30
주영초등학교,지진해일대피소,지진해일 긴급대피장소,기타,강원도 강릉시 주문진읍 주문리 461,강원도 강릉시 주문진읍 주문리 461,37.8982351,128.8268918,1056,320,Y,033-640-5516,,주문진항,,,,적용,1등급,650,22,,,,강릉시,033-640-5516,2019-06-30
우일아파트 야산,지진해일대피소,지진해일 긴급대피장소,공터,강원도 강릉시 주문진읍 주문리 산96-1,강원도 강릉시 주문진읍 주문리 산96-1,37.904771,128.825099,2970,900,Y,033-640-5515,,주문진해변,,,,미적용,,200,24,,,,강릉시,033-640-5515,2019-06-30
소돌휴게소,지진해일대피소,지진해일 긴급대피장소,기타,강원도 강릉시 주문진읍 향호리 8-3,강원도 강릉시 주문진읍 향호리 8-3,37.9108642,128.8160805,1551,470,Y,033-640-5514,,주문진해변,,,,적용,2등급,250,19,,,,강릉시,033-640-5514,2019-06-30
지경야산,지진해일대피소,지진해일 긴급대피장소,공터,강원도 양양군 현남면 산 1,강원도 양양군 현남면 산 1,37.916940,128.798880,330,100,Y,033-670-2247,,"지경,원포지구",,,,미적용,,500,15,,,,양양군,033-670-2247,2019-06-30
원포야산,지진해일대피소,지진해일 긴급대피장소,공터,강원도 양양군 현남면 산78,강원도 양양군 현남면 산78,37.926660,128.793330,330,100,Y,033-670-2247,,"지경,원포지구",,,,미적용,,300,20,,,,양양군,033-670-2247,2019-06-30
인구야산,지진해일대피소,지진해일 긴급대피장소,공터,강원도 양양군 현남면 111,강원도 양양군 현남면 111,37.952206,128.765308,330,100,Y,033-670-2247,,"인구,광진지구",,,,미적용,,300,25,,,,양양군,033-670-2247,2019-06-30
광진리야산,지진해일대피소,지진해일 긴급대피장소,공터,강원도 양양군 현남면 광진리 51-1,강원도 양양군 현남면 광진리 51-1,37.955417,128.770439,330,100,Y,033-670-2247,,"인구,광진지구",,,,미적용,,100,15,,,,양양군,033-670-2247,2019-06-30
천주교야산,지진해일대피소,지진해일 긴급대피장소,공터,강원도 양양군 현남면 시변리 41-7,강원도 양양군 현남면 시변리 41-7,37.9702894,128.7598274,330,100,Y,033-670-2247,,"인구,광진지구",,,,미적용,,300,20,,,,양양군,033-670-2247,2019-06-30
동산리야산,지진해일대피소,지진해일 긴급대피장소,공터,강원도 양양군 현남면 동산리 58-1,강원도 양양군 현남면 동산리 58-1,37.980265,128.759085,330,100,Y,033-670-2247,,동산지구,,,,미적용,,250,25,,,,양양군,033-670-2247,2019-06-30
기사문리철뚝,지진해일대피소,지진해일 긴급대피장소,공터,강원도 양양군 현북면 산54-2,강원도 양양군 현북면 산54-2,38.005550,128.731110,990,300,Y,033-670-2247,,기사문지구,,,,미적용,,350,25,,,,양양군,033-670-2247,2019-06-30
하광정리 야산,지진해일대피소,지진해일 긴급대피장소,공터,강원도 양양군 현북면 하광정리 산19,강원도 양양군 현북면 하광정리 산19,38.0203556,128.7274714,1650,500,Y,033-670-2247,,하광정지구,,,,미적용,,350,30,,,,양양군,033-670-2247,2019-06-30
동호리공항도로,지진해일대피소,지진해일 긴급대피장소,공터,강원도 양양군 손양면 동호리 563-8,강원도 양양군 손양면 동호리 563-8,38.051380,128.682500,825,250,Y,033-670-2247,,동호지구,,,,미적용,,500,30,,,,양양군,033-670-2247,2019-06-30
동호리야산,지진해일대피소,지진해일 긴급대피장소,공터,강원도 양양군 손양면 산44,강원도 양양군 손양면 산44,38.055270,128.682220,825,250,Y,033-670-2247,,동호지구,,,,미적용,,250,30,,,,양양군,033-670-2247,2019-06-30
수산리야산,지진해일대피소,지진해일 긴급대피장소,공터,강원도 양양군 손양면 전20-2,강원도 양양군 손양면 전20-2,38.073330,128.674720,495,150,Y,033-670-2247,,수산지구,,,,미적용,,200,25,,,,양양군,033-670-2247,2019-06-30
수산리야산,지진해일대피소,지진해일 긴급대피장소,공터,강원도 양양군 손양면 산85-1,강원도 양양군 손양면 산85-1,38.076380,128.672770,495,150,Y,033-670-2247,,수산지구,,,,미적용,,200,25,,,,양양군,033-670-2247,2019-06-30
오산리야산,지진해일대피소,지진해일 긴급대피장소,공터,강원도 양양군 손양면 산81-1,강원도 양양군 손양면 산81-1,38.085830,128.665830,1650,500,Y,033-670-2247,,오산지구,,,,미적용,,100,25,,,,양양군,033-670-2247,2019-06-30
주청리야산,지진해일대피소,지진해일 긴급대피장소,공터,강원도 양양군 강현면 산6-1,강원도 양양군 강현면 산6-1,38.112342,128.629503,1650,500,Y,033-670-2247,,낙산지구,,,,미적용,,500,20,,,,양양군,033-670-2247,2019-06-30
전진리야산,지진해일대피소,지진해일 긴급대피장소,공터,강원도 양양군 강현면 산8-2,강원도 양양군 강현면 산8-2,38.119881,128.632258,1650,500,Y,033-670-2247,,낙산지구,,,,미적용,,150,30,,,,양양군,033-670-2247,2019-06-30
용호리 야산,지진해일대피소,지진해일 긴급대피장소,공터,강원도 양양군 강현면 용호리 산1-3,강원도 양양군 강현면 용호리 산1-3,38.131660,128.622770,990,300,Y,033-670-2247,,설악지구,,,,미적용,,100,25,,,,양양군,033-670-2247,2019-06-30
정암리 야산,지진해일대피소,지진해일 긴급대피장소,공터,강원도 양양군 강현면 정암리 산64-2,강원도 양양군 강현면 정암리 산64-2,38.137220,128.615000,660,200,Y,033-670-2247,,정암지구,,,,미적용,,300,20,,,,양양군,033-670-2247,2019-06-30
물치리 야산,지진해일대피소,지진해일 긴급대피장소,공터,강원도 양양군 강현면 물치리 산12,강원도 양양군 강현면 물치리 산12,38.153610,128.610270,990,300,Y,033-670-2247,,물치지구,,,,미적용,,170,15,,,,양양군,033-670-2247,2019-06-30
내물치 뒷산 고지대,지진해일대피소,지진해일 긴급대피장소,공터,강원도 속초시 대포동 내물치,강원도 속초시 대포동 내물치,38.165088,128.606948,2310,700,Y,033-639-2686,,대포지구,,,,미적용,,110,30,,,,속초시,033-639-2686,2019-06-30
할머니성황당고지대,지진해일대피소,지진해일 긴급대피장소,공터,강원도 속초시 대포동 대포항,강원도 속초시 대포동 대포항,38.171426,128.604650,3300,1000,Y,033-639-2685,,대포지구,,,,미적용,,90,23,,,,속초시,033-639-2685,2019-06-30
대포초등학교운동장,지진해일대피소,지진해일 긴급대피장소,운동장,강원도 속초시 대포동 350,강원도 속초시 대포동 350,38.1740080,128.6031973,2640,800,Y,033-635-3840,,대포지구,,,,미적용,,140,21,,,,삼척시,033-635-3840,2019-06-30
(구)대포정수장고지대,지진해일대피소,지진해일 긴급대피장소,공터,강원도 속초시 대포동 산 44,강원도 속초시 대포동 산 44,38.1788630,128.599959,1980,600,Y,033-639-2685,,청호3지구,,,,미적용,,580,60,,,,속초시,033-639-2685,2019-06-30
조양감리교회고지대,지진해일대피소,지진해일 긴급대피장소,공터,강원도 속초시 조양동 1289-15,강원도 속초시 조양동 1289-15,38.1837261,128.602467,3300,1000,Y,033-639-2686,,청호3지구,,,,미적용,,500,25,,,,속초시,033-639-2686,2019-06-30
